{"827 TAMPINES ST 81": [{"SEARCHVAL": "827 TAMPINES STREET 81 SINGAPORE 520827", "BLK_NO": "827", "ROAD_NAME": "TAMPINES STREET 81", "BUILDING": "NIL", "ADDRESS": "827 TAMPINES STREET 81 SINGAPORE 520827", "POSTAL": "520827", "X": "39173.4766506245", "Y": "36871.0919216368", "LATITUDE": "1.34972149544046", "LONGITUDE": "103.933719246104"}, {"SEARCHVAL": "ATM DBS TAMPINES WEST BRANCH", "BLK_NO": "827", "ROAD_NAME": "TAMPINES STREET 81", "BUILDING": "ATM DBS TAMPINES WEST BRANCH", "ADDRESS": "827 TAMPINES STREET 81 ATM DBS TAMPINES WEST BRANCH SINGAPORE 520827", "POSTAL": "520827", "X": "39173.7698868513", "Y": "36870.5470071249", "LATITUDE": "1.34971656732554", "LONGITUDE": "103.93372188081"}], "215 CHOA CHU KANG CTRL": [{"SEARCHVAL": "BLK 216 AND 215 CHOA CHU KANG CENTRAL", "BLK_NO": "", "ROAD_NAME": "NIL", "BUILDING": "BLK 216 AND 215 CHOA CHU KANG CENTRAL", "ADDRESS": "BLK 216 AND 215 CHOA CHU KANG CENTRAL", "POSTAL": "NIL", "X": "18402.3645474631", "Y": "40559.9837618358", "LATITUDE": "1.38308302434129", "LONGITUDE": "103.747076627693"}], "635 ANG MO KIO AVE 6": [{"SEARCHVAL": "YIO CHU KANG HEIGHTS", "BLK_NO": "635", "ROAD_NAME": "ANG MO KIO AVENUE 6", "BUILDING": "YIO CHU KANG HEIGHTS", "ADDRESS": "635 ANG MO KIO AVENUE 6 YIO CHU KANG HEIGHTS SINGAPORE 560635", "POSTAL": "560635", "X": "29008.2464283472", "Y": "40303.9339026045", "LATITUDE": "1.38076896104696", "LONGITUDE": "103.842378423538"}], "31 BEDOK STH AVE 2": [{"SEARCHVAL": "31 BEDOK SOUTH AVENUE 2 SINGAPORE 460031", "BLK_NO": "31", "ROAD_NAME": "BEDOK SOUTH AVENUE 2", "BUILDING": "NIL", "ADDRESS": "31 BEDOK SOUTH AVENUE 2 SINGAPORE 460031", "POSTAL": "460031", "X": "39668.3924780274", "Y": "33918.0118901469", "LATITUDE": "1.32301474306803", "LONGITUDE": "103.938165236776"}], "339A KANG CHING RD": [{"SEARCHVAL": "339A KANG CHING ROAD SINGAPORE 611339", "BLK_NO": "339A", "ROAD_NAME": "KANG CHING ROAD", "BUILDING": "NIL", "ADDRESS": "339A KANG CHING ROAD SINGAPORE 611339", "POSTAL": "611339", "X": "15551.6266225185", "Y": "35558.9716190863", "LATITUDE": "1.33785466388305", "LONGITUDE": "103.721462722132"}], "405B FERNVALE LANE": [{"SEARCHVAL": "FERN SPRING", "BLK_NO": "405B", "ROAD_NAME": "FERNVALE LANE", "BUILDING": "FERN SPRING", "ADDRESS": "405B FERNVALE LANE FERN SPRING SINGAPORE 792405", "POSTAL": "792405", "X": "32490.6115524834", "Y": "41214.3383424953", "LATITUDE": "1.38900200354175", "LONGITUDE": "103.873670202802"}, {"SEARCHVAL": "SMARTIE COTTAGE", "BLK_NO": "405B", "ROAD_NAME": "FERNVALE LANE", "BUILDING": "SMARTIE COTTAGE", "ADDRESS": "405B FERNVALE LANE SMARTIE COTTAGE SINGAPORE 792405", "POSTAL": "792405", "X": "32490.6126118628", "Y": "41213.8487881273", "LATITUDE": "1.38899757618853", "LONGITUDE": "103.873670212246"}], "130 LOR AH SOO": [{"SEARCHVAL": "130 LORONG AH SOO SINGAPORE 530130", "BLK_NO": "130", "ROAD_NAME": "LORONG AH SOO", "BUILDING": "NIL", "ADDRESS": "130 LORONG AH SOO SINGAPORE 530130", "POSTAL": "530130", "X": "33917.3699364802", "Y": "37043.2629325129", "LATITUDE": "1.35128004840606", "LONGITUDE": "103.886489897616"}], "123 RIVERVALE DR": [{"SEARCHVAL": "RIVERVALE GROVE", "BLK_NO": "123", "ROAD_NAME": "RIVERVALE DRIVE", "BUILDING": "RIVERVALE GROVE", "ADDRESS": "123 RIVERVALE DRIVE RIVERVALE GROVE SINGAPORE 540123", "POSTAL": "540123", "X": "35772.2154363627", "Y": "40932.8279331345", "LATITUDE": "1.38645543463935", "LONGITUDE": "103.903157870017"}], "356 WOODLANDS AVE 5": [{"SEARCHVAL": "356 WOODLANDS AVENUE 5 SINGAPORE 730356", "BLK_NO": "356", "ROAD_NAME": "WOODLANDS AVENUE 5", "BUILDING": "NIL", "ADDRESS": "356 WOODLANDS AVENUE 5 SINGAPORE 730356", "POSTAL": "730356", "X": "22619.7402867796", "Y": "46109.9112375341", "LATITUDE": "1.43327563349308", "LONGITUDE": "103.784971863914"}], "240 LOR 1 TOA PAYOH": [{"SEARCHVAL": "240 LORONG 1 TOA PAYOH SINGAPORE 310240", "BLK_NO": "240", "ROAD_NAME": "LORONG 1 TOA PAYOH", "BUILDING": "NIL", "ADDRESS": "240 LORONG 1 TOA PAYOH SINGAPORE 310240", "POSTAL": "310240", "X": "29948.8278966639", "Y": "35892.827963775", "LATITUDE": "1.34087644567662", "LONGITUDE": "103.850829960636"}], "846 SIMS AVE": [{"SEARCHVAL": "846 SIMS AVENUE SINGAPORE 400846", "BLK_NO": "846", "ROAD_NAME": "SIMS AVENUE", "BUILDING": "NIL", "ADDRESS": "846 SIMS AVENUE SINGAPORE 400846", "POSTAL": "400846", "X": "35610.9910536734", "Y": "33319.4248890337", "LATITUDE": "1.317602618253", "LONGITUDE": "103.90170722021"}], "244 JURONG EAST ST 24": [{"SEARCHVAL": "244 JURONG EAST STREET 24 SINGAPORE 600244", "BLK_NO": "244", "ROAD_NAME": "JURONG EAST STREET 24", "BUILDING": "NIL", "ADDRESS": "244 JURONG EAST STREET 24 SINGAPORE 600244", "POSTAL": "600244", "X": "17852.1215094076", "Y": "36087.1163351778", "LATITUDE": "1.34263187196449", "LONGITUDE": "103.742133807093"}, {"SEARCHVAL": "IYAD PERDAUS CHILD DEVELOPMENT", "BLK_NO": "244", "ROAD_NAME": "JURONG EAST STREET 24", "BUILDING": "IYAD PERDAUS CHILD DEVELOPMENT", "ADDRESS": "244 JURONG EAST STREET 24 IYAD PERDAUS CHILD DEVELOPMENT SINGAPORE 600244", "POSTAL": "600244", "X": "17872.7590379417", "Y": "36081.9841866624", "LATITUDE": "1.34258546564843", "LONGITUDE": "103.742319249218"}], "427 WOODLANDS ST 41": [{"SEARCHVAL": "427 WOODLANDS STREET 41 SINGAPORE 730427", "BLK_NO": "427", "ROAD_NAME": "WOODLANDS STREET 41", "BUILDING": "NIL", "ADDRESS": "427 WOODLANDS STREET 41 SINGAPORE 730427", "POSTAL": "730427", "X": "21231.1954743695", "Y": "45448.6443876997", "LATITUDE": "1.42729507942919", "LONGITUDE": "103.772494639198"}], "771 WOODLANDS DR 60": [{"SEARCHVAL": "771 WOODLANDS DRIVE 60 SINGAPORE 730771", "BLK_NO": "771", "ROAD_NAME": "WOODLANDS DRIVE 60", "BUILDING": "NIL", "ADDRESS": "771 WOODLANDS DRIVE 60 SINGAPORE 730771", "POSTAL": "730771", "X": "24065.3562905276", "Y": "47601.5755593833", "LATITUDE": "1.44676594112794", "LONGITUDE": "103.797961878988"}], "166 YISHUN RING RD": [{"SEARCHVAL": "166 YISHUN RING ROAD SINGAPORE 760166", "BLK_NO": "166", "ROAD_NAME": "YISHUN RING ROAD", "BUILDING": "NIL", "ADDRESS": "166 YISHUN RING ROAD SINGAPORE 760166", "POSTAL": "760166", "X": "27809.4807841973", "Y": "46442.4891231265", "LATITUDE": "1.43628386057838", "LONGITUDE": "103.831606580876"}], "753 PASIR RIS ST 71": [{"SEARCHVAL": "753 PASIR RIS STREET 71 SINGAPORE 510753", "BLK_NO": "753", "ROAD_NAME": "PASIR RIS STREET 71", "BUILDING": "NIL", "ADDRESS": "753 PASIR RIS STREET 71 SINGAPORE 510753", "POSTAL": "510753", "X": "39258.271196289", "Y": "39904.6874836646", "LATITUDE": "1.37715617697613", "LONGITUDE": "103.934482322299"}, {"SEARCHVAL": "HDB PUBLIC SHELTERS", "BLK_NO": "753", "ROAD_NAME": "PASIR RIS STREET 71", "BUILDING": "HDB PUBLIC SHELTERS", "ADDRESS": "753 PASIR RIS STREET 71 HDB PUBLIC SHELTERS SINGAPORE 510753", "POSTAL": "510753", "X": "39258.0619537178", "Y": "39904.4055676647", "LATITUDE": "1.37715362751296", "LONGITUDE": "103.934480441997"}], "731 YISHUN ST 72": [{"SEARCHVAL": "ATM OCBC YISHUN STREET 72", "BLK_NO": "731", "ROAD_NAME": "YISHUN STREET 72", "BUILDING": "ATM OCBC YISHUN STREET 72", "ADDRESS": "731 YISHUN STREET 72 ATM OCBC YISHUN STREET 72 SINGAPORE 760731", "POSTAL": "760731", "X": "27755.1924010143", "Y": "45564.8762903642", "LATITUDE": "1.4283470473707", "LONGITUDE": "103.831118755408"}, {"SEARCHVAL": "NEE SOON CENTRAL VISTA", "BLK_NO": "731", "ROAD_NAME": "YISHUN STREET 72", "BUILDING": "NEE SOON CENTRAL VISTA", "ADDRESS": "731 YISHUN STREET 72 NEE SOON CENTRAL VISTA SINGAPORE 760731", "POSTAL": "760731", "X": "27754.9160845904", "Y": "45565.0463964324", "LATITUDE": "1.42834858574606", "LONGITUDE": "103.831116272448"}, {"SEARCHVAL": "THOTH STUDY INN", "BLK_NO": "731", "ROAD_NAME": "YISHUN STREET 72", "BUILDING": "THOTH STUDY INN", "ADDRESS": "731 YISHUN STREET 72 THOTH STUDY INN SINGAPORE 760731", "POSTAL": "760731", "X": "27766.6335777873", "Y": "45554.9229060635", "LATITUDE": "1.42825703266018", "LONGITUDE": "103.831221565061"}], "35 JLN BAHAGIA": [{"SEARCHVAL": "WHAMPOA GARDENS", "BLK_NO": "35", "ROAD_NAME": "JALAN BAHAGIA", "BUILDING": "WHAMPOA GARDENS", "ADDRESS": "35 JALAN BAHAGIA WHAMPOA GARDENS SINGAPORE 320035", "POSTAL": "320035", "X": "30699.6330721788", "Y": "34329.7543856297", "LATITUDE": "1.3267405056425", "LONGITUDE": "103.857576254516"}], "638 ANG MO KIO AVE 6": [{"SEARCHVAL": "YIO CHU KANG HEIGHTS", "BLK_NO": "638", "ROAD_NAME": "ANG MO KIO AVENUE 6", "BUILDING": "YIO CHU KANG HEIGHTS", "ADDRESS": "638 ANG MO KIO AVENUE 6 YIO CHU KANG HEIGHTS SINGAPORE 560638", "POSTAL": "560638", "X": "29140.605203541", "Y": "40271.4956741873", "LATITUDE": "1.38047559647224", "LONGITUDE": "103.843567764408"}], "730 YISHUN ST 71": [{"SEARCHVAL": "KHATIB SPRING", "BLK_NO": "730", "ROAD_NAME": "YISHUN STREET 71", "BUILDING": "KHATIB SPRING", "ADDRESS": "730 YISHUN STREET 71 KHATIB SPRING SINGAPORE 760730", "POSTAL": "760730", "X": "27800.7340330668", "Y": "45441.7236132231", "LATITUDE": "1.42723329945277", "LONGITUDE": "103.831527990025"}], "540 HOUGANG AVE 8": [{"SEARCHVAL": "540 HOUGANG AVENUE 8 SINGAPORE 530540", "BLK_NO": "540", "ROAD_NAME": "HOUGANG AVENUE 8", "BUILDING": "NIL", "ADDRESS": "540 HOUGANG AVENUE 8 SINGAPORE 530540", "POSTAL": "530540", "X": "34450.6585450647", "Y": "39977.4516559858", "LATITUDE": "1.37781568057175", "LONGITUDE": "103.891282467147"}, {"SEARCHVAL": "GLORY CENTRE BEFORE & AFTER SCHOOL CARE", "BLK_NO": "540", "ROAD_NAME": "HOUGANG AVENUE 8", "BUILDING": "GLORY CENTRE BEFORE & AFTER SCHOOL CARE", "ADDRESS": "540 HOUGANG AVENUE 8 GLORY CENTRE BEFORE & AFTER SCHOOL CARE SINGAPORE 530540", "POSTAL": "530540", "X": "34450.3975139726", "Y": "39977.323410539", "LATITUDE": "1.3778145208238", "LONGITUDE": "103.891280121565"}, {"SEARCHVAL": "HDB PUBLIC SHELTERS", "BLK_NO": "540", "ROAD_NAME": "HOUGANG AVENUE 8", "BUILDING": "HDB PUBLIC SHELTERS", "ADDRESS": "540 HOUGANG AVENUE 8 HDB PUBLIC SHELTERS SINGAPORE 530540", "POSTAL": "530540", "X": "34450.3966362011", "Y": "39977.3235013429", "LATITUDE": "1.37781452164519", "LONGITUDE": "103.891280113677"}], "129 KIM TIAN RD": [{"SEARCHVAL": "KIM TIAN VISTA", "BLK_NO": "129", "ROAD_NAME": "KIM TIAN ROAD", "BUILDING": "KIM TIAN VISTA", "ADDRESS": "129 KIM TIAN ROAD KIM TIAN VISTA SINGAPORE 160129", "POSTAL": "160129", "X": "27503.3722503651", "Y": "29288.9134203419", "LATITUDE": "1.2811530312289", "LONGITUDE": "103.828856188305"}], "345 ANG MO KIO AVE 3": [{"SEARCHVAL": "TECK GHEE EVERGREEN", "BLK_NO": "345", "ROAD_NAME": "ANG MO KIO AVENUE 3", "BUILDING": "TECK GHEE EVERGREEN", "ADDRESS": "345 ANG MO KIO AVENUE 3 TECK GHEE EVERGREEN SINGAPORE 560345", "POSTAL": "560345", "X": "29817.6830492252", "Y": "38835.2892298773", "LATITUDE": "1.36748702509964", "LONGITUDE": "103.849651723914"}], "488B CHOA CHU KANG AVE 5": [{"SEARCHVAL": "SUNSHINE GARDENS", "BLK_NO": "488B", "ROAD_NAME": "CHOA CHU KANG AVENUE 5", "BUILDING": "SUNSHINE GARDENS", "ADDRESS": "488B CHOA CHU KANG AVENUE 5 SUNSHINE GARDENS SINGAPORE 682488", "POSTAL": "682488", "X": "17536.1354731089", "Y": "39884.508848032", "LATITUDE": "1.3769739817533", "LONGITUDE": "103.739293156619"}], "953 JURONG WEST ST 91": [{"SEARCHVAL": "953 JURONG WEST STREET 91 SINGAPORE 640953", "BLK_NO": "953", "ROAD_NAME": "JURONG WEST STREET 91", "BUILDING": "NIL", "ADDRESS": "953 JURONG WEST STREET 91 SINGAPORE 640953", "POSTAL": "640953", "X": "12147.4609833434", "Y": "36056.1577571444", "LATITUDE": "1.34234942956379", "LONGITUDE": "103.690874115788"}], "43 SIMS DR": [{"SEARCHVAL": "43 SIMS DRIVE SINGAPORE 380043", "BLK_NO": "43", "ROAD_NAME": "SIMS DRIVE", "BUILDING": "NIL", "ADDRESS": "43 SIMS DRIVE SINGAPORE 380043", "POSTAL": "380043", "X": "32814.8974028649", "Y": "33270.4843742847", "LATITUDE": "1.31716058404978", "LONGITUDE": "103.876582889534"}], "163A PUNGGOL CTRL": [{"SEARCHVAL": "163A PUNGGOL CENTRAL SINGAPORE 821163", "BLK_NO": "163A", "ROAD_NAME": "PUNGGOL CENTRAL", "BUILDING": "NIL", "ADDRESS": "163A PUNGGOL CENTRAL SINGAPORE 821163", "POSTAL": "821163", "X": "36985.424387251", "Y": "41933.0363002624", "LATITUDE": "1.39550060247735", "LONGITUDE": "103.914059779581"}], "182 BT BATOK WEST AVE 8": [{"SEARCHVAL": "182 BUKIT BATOK WEST AVENUE 8 SINGAPORE 650182", "BLK_NO": "182", "ROAD_NAME": "BUKIT BATOK WEST AVENUE 8", "BUILDING": "NIL", "ADDRESS": "182 BUKIT BATOK WEST AVENUE 8 SINGAPORE 650182", "POSTAL": "650182", "X": "18039.9590470484", "Y": "36411.3319033012", "LATITUDE": "1.34556402157015", "LONGITUDE": "103.743821531821"}], "270C PUNGGOL FIELD": [{"SEARCHVAL": "PUNGGOL SAPPHIRE", "BLK_NO": "270C", "ROAD_NAME": "PUNGGOL FIELD", "BUILDING": "PUNGGOL SAPPHIRE", "ADDRESS": "270C PUNGGOL FIELD PUNGGOL SAPPHIRE SINGAPORE 823270", "POSTAL": "823270", "X": "35292.9534534384", "Y": "42907.6858068481", "LATITUDE": "1.4043154522189", "LONGITUDE": "103.898851831195"}], "505 WEST COAST DR": [{"SEARCHVAL": "505 WEST COAST DRIVE SINGAPORE 120505", "BLK_NO": "505", "ROAD_NAME": "WEST COAST DRIVE", "BUILDING": "NIL", "ADDRESS": "505 WEST COAST DRIVE SINGAPORE 120505", "POSTAL": "120505", "X": "19838.2815390453", "Y": "32730.9522373602", "LATITUDE": "1.31228054125456", "LONGITUDE": "103.759981529056"}, {"SEARCHVAL": "ATM OCBC WEST COAST DRIVE - 7 ELEVEN", "BLK_NO": "505", "ROAD_NAME": "WEST COAST DRIVE", "BUILDING": "ATM OCBC WEST COAST DRIVE - 7 ELEVEN", "ADDRESS": "505 WEST COAST DRIVE ATM OCBC WEST COAST DRIVE - 7 ELEVEN SINGAPORE 120505", "POSTAL": "120505", "X": "19837.9920863174", "Y": "32730.7195068337", "LATITUDE": "1.31227843644678", "LONGITUDE": "103.759978928244"}], "316 BT BATOK ST 32": [{"SEARCHVAL": "316 BUKIT BATOK STREET 32 SINGAPORE 650316", "BLK_NO": "316", "ROAD_NAME": "BUKIT BATOK STREET 32", "BUILDING": "NIL", "ADDRESS": "316 BUKIT BATOK STREET 32 SINGAPORE 650316", "POSTAL": "650316", "X": "18375.2735215854", "Y": "38071.3365805428", "LATITUDE": "1.3605766052846", "LONGITUDE": "103.746834002944"}], "464 CHOA CHU KANG AVE 4": [{"SEARCHVAL": "464 CHOA CHU KANG AVENUE 4 SINGAPORE 680464", "BLK_NO": "464", "ROAD_NAME": "CHOA CHU KANG AVENUE 4", "BUILDING": "NIL", "ADDRESS": "464 CHOA CHU KANG AVENUE 4 SINGAPORE 680464", "POSTAL": "680464", "X": "17153.7837346401", "Y": "39877.903950233", "LATITUDE": "1.37691411063327", "LONGITUDE": "103.735857454273"}], "436A BT BATOK WEST AVE 5": [{"SEARCHVAL": "WEST EDGE @ BUKIT BATOK", "BLK_NO": "436A", "ROAD_NAME": "BUKIT BATOK WEST AVENUE 5", "BUILDING": "WEST EDGE @ BUKIT BATOK", "ADDRESS": "436A BUKIT BATOK WEST AVENUE 5 WEST EDGE @ BUKIT BATOK SINGAPORE 651436", "POSTAL": "651436", "X": "17612.3098483505", "Y": "37911.277394155", "LATITUDE": "1.35912883183507", "LONGITUDE": "103.739978327829"}], "254 SIMEI ST 1": [{"SEARCHVAL": "254 SIMEI STREET 1 SINGAPORE 520254", "BLK_NO": "254", "ROAD_NAME": "SIMEI STREET 1", "BUILDING": "NIL", "ADDRESS": "254 SIMEI STREET 1 SINGAPORE 520254", "POSTAL": "520254", "X": "41210.1297306996", "Y": "36002.6027066689", "LATITUDE": "1.34186637511517", "LONGITUDE": "103.952019442211"}], "610 CHOA CHU KANG ST 62": [{"SEARCHVAL": "610 CHOA CHU KANG STREET 62 SINGAPORE 680610", "BLK_NO": "610", "ROAD_NAME": "CHOA CHU KANG STREET 62", "BUILDING": "NIL", "ADDRESS": "610 CHOA CHU KANG STREET 62 SINGAPORE 680610", "POSTAL": "680610", "X": "18036.2606929215", "Y": "42366.9129247349", "LATITUDE": "1.39942410073335", "LONGITUDE": "103.743786296577"}, {"SEARCHVAL": "HDB PUBLIC SHELTERS", "BLK_NO": "610", "ROAD_NAME": "CHOA CHU KANG STREET 62", "BUILDING": "HDB PUBLIC SHELTERS", "ADDRESS": "610 CHOA CHU KANG STREET 62 HDB PUBLIC SHELTERS SINGAPORE 680610", "POSTAL": "680610", "X": "18036.2606929215", "Y": "42367.2168758269", "LATITUDE": "1.3994268495544", "LONGITUDE": "103.743786296472"}], "453 TAMPINES ST 42": [{"SEARCHVAL": "453 TAMPINES STREET 42 SINGAPORE 520453", "BLK_NO": "453", "ROAD_NAME": "TAMPINES STREET 42", "BUILDING": "NIL", "ADDRESS": "453 TAMPINES STREET 42 SINGAPORE 520453", "POSTAL": "520453", "X": "41420.874441633", "Y": "37679.0920845438", "LATITUDE": "1.35702782190396", "LONGITUDE": "103.953913852452"}], "890B WOODLANDS DR 50": [{"SEARCHVAL": "TREETRAIL@WOODLANDS", "BLK_NO": "890B", "ROAD_NAME": "WOODLANDS DRIVE 50", "BUILDING": "TREETRAIL@WOODLANDS", "ADDRESS": "890B WOODLANDS DRIVE 50 TREETRAIL@WOODLANDS SINGAPORE 732890", "POSTAL": "732890", "X": "23452.1971924054", "Y": "46658.6911817938", "LATITUDE": "1.43823874589707", "LONGITUDE": "103.792452185805"}], "130 EDGEDALE PLAINS": [{"SEARCHVAL": "130 EDGEDALE PLAINS SINGAPORE 820130", "BLK_NO": "130", "ROAD_NAME": "EDGEDALE PLAINS", "BUILDING": "NIL", "ADDRESS": "130 EDGEDALE PLAINS SINGAPORE 820130", "POSTAL": "820130", "X": "36539.7906487929", "Y": "41675.6459931061", "LATITUDE": "1.39317299390016", "LONGITUDE": "103.910055332313"}], "811 YISHUN RING RD": [{"SEARCHVAL": "KHATIB GARDENS", "BLK_NO": "811", "ROAD_NAME": "YISHUN RING ROAD", "BUILDING": "KHATIB GARDENS", "ADDRESS": "811 YISHUN RING ROAD KHATIB GARDENS SINGAPORE 760811", "POSTAL": "760811", "X": "27876.9971237686", "Y": "44246.6942187157", "LATITUDE": "1.41642588562492", "LONGITUDE": "103.832213289414"}], "759 JURONG WEST ST 74": [{"SEARCHVAL": "759 JURONG WEST STREET 74 SINGAPORE 640759", "BLK_NO": "759", "ROAD_NAME": "JURONG WEST STREET 74", "BUILDING": "NIL", "ADDRESS": "759 JURONG WEST STREET 74 SINGAPORE 640759", "POSTAL": "640759", "X": "13130.2011825126", "Y": "36918.0888988823", "LATITUDE": "1.35014490879961", "LONGITUDE": "103.69970417817"}], "317 TAMPINES ST 33": [{"SEARCHVAL": "317 TAMPINES STREET 33 SINGAPORE 520317", "BLK_NO": "317", "ROAD_NAME": "TAMPINES STREET 33", "BUILDING": "NIL", "ADDRESS": "317 TAMPINES STREET 33 SINGAPORE 520317", "POSTAL": "520317", "X": "41752.9963703193", "Y": "37072.0741484426", "LATITUDE": "1.35153802906184", "LONGITUDE": "103.956897901071"}], "53 CHAI CHEE ST": [{"SEARCHVAL": "CHAI CHEE GARDENS", "BLK_NO": "53", "ROAD_NAME": "CHAI CHEE STREET", "BUILDING": "CHAI CHEE GARDENS", "ADDRESS": "53 CHAI CHEE STREET CHAI CHEE GARDENS SINGAPORE 460053", "POSTAL": "460053", "X": "37644.3630540455", "Y": "34520.3627453037", "LATITUDE": "1.32846289099428", "LONGITUDE": "103.919978470188"}], "836 JURONG WEST ST 81": [{"SEARCHVAL": "HDB PUBLIC SHELTERS", "BLK_NO": "836", "ROAD_NAME": "JURONG WEST STREET 81", "BUILDING": "HDB PUBLIC SHELTERS", "ADDRESS": "836 JURONG WEST STREET 81 HDB PUBLIC SHELTERS SINGAPORE 640836", "POSTAL": "640836", "X": "12435.7892560372", "Y": "36087.2718823459", "LATITUDE": "1.34263096431938", "LONGITUDE": "103.693464895067"}, {"SEARCHVAL": "NANYANG PEARL", "BLK_NO": "836", "ROAD_NAME": "JURONG WEST STREET 81", "BUILDING": "NANYANG PEARL", "ADDRESS": "836 JURONG WEST STREET 81 NANYANG PEARL SINGAPORE 640836", "POSTAL": "640836", "X": "12448.2261284022", "Y": "36095.8295191135", "LATITUDE": "1.3427083627467", "LONGITUDE": "103.693576643138"}], "232 BT BATOK EAST AVE 5": [{"SEARCHVAL": "GOMBAK GARDENS", "BLK_NO": "232", "ROAD_NAME": "BUKIT BATOK EAST AVENUE 5", "BUILDING": "GOMBAK GARDENS", "ADDRESS": "232 BUKIT BATOK EAST AVENUE 5 GOMBAK GARDENS SINGAPORE 650232", "POSTAL": "650232", "X": "19277.5369635029", "Y": "36828.3857034948", "LATITUDE": "1.34933608943668", "LONGITUDE": "103.75494179671"}], "670A EDGEFIELD PLAINS": [{"SEARCHVAL": "WATERWAY RIDGES", "BLK_NO": "670A", "ROAD_NAME": "EDGEFIELD PLAINS", "BUILDING": "WATERWAY RIDGES", "ADDRESS": "670A EDGEFIELD PLAINS WATERWAY RIDGES SINGAPORE 821670", "POSTAL": "821670", "X": "36863.0803798307", "Y": "43025.8242292721", "LATITUDE": "1.40538341177792", "LONGITUDE": "103.912960755392"}], "315 UBI AVE 1": [{"SEARCHVAL": "KAMPONG UBI GREENVILLE", "BLK_NO": "315", "ROAD_NAME": "UBI AVENUE 1", "BUILDING": "KAMPONG UBI GREENVILLE", "ADDRESS": "315 UBI AVENUE 1 KAMPONG UBI GREENVILLE SINGAPORE 400315", "POSTAL": "400315", "X": "35799.7814274421", "Y": "34639.4316660818", "LATITUDE": "1.32954023626209", "LONGITUDE": "103.903403932337"}, {"SEARCHVAL": "UBI CHILD CARE & DEVELOPMENT CENTRE", "BLK_NO": "315", "ROAD_NAME": "UBI AVENUE 1", "BUILDING": "UBI CHILD CARE & DEVELOPMENT CENTRE", "ADDRESS": "315 UBI AVENUE 1 UBI CHILD CARE & DEVELOPMENT CENTRE SINGAPORE 400315", "POSTAL": "400315", "X": "35779.399905514", "Y": "34619.0976951569", "LATITUDE": "1.32935634839085", "LONGITUDE": "103.903220788002"}], "613C PUNGGOL DR": [{"SEARCHVAL": "DAMAI GROVE", "BLK_NO": "613C", "ROAD_NAME": "PUNGGOL DRIVE", "BUILDING": "DAMAI GROVE", "ADDRESS": "613C PUNGGOL DRIVE DAMAI GROVE SINGAPORE 823613", "POSTAL": "823613", "X": "36384.9034738541", "Y": "42870.9817904141", "LATITUDE": "1.40398321711595", "LONGITUDE": "103.908663894394"}], "58 JLN MA'MOR": [{"SEARCHVAL": "58 JALAN MA'MOR SINGAPORE 320058", "BLK_NO": "58", "ROAD_NAME": "JALAN MA'MOR", "BUILDING": "NIL", "ADDRESS": "58 JALAN MA'MOR SINGAPORE 320058", "POSTAL": "320058", "X": "30654.1073610857", "Y": "34508.9019246083", "LATITUDE": "1.32836065642983", "LONGITUDE": "103.857167196711"}], "219 PASIR RIS ST 21": [{"SEARCHVAL": "219 PASIR RIS STREET 21 SINGAPORE 510219", "BLK_NO": "219", "ROAD_NAME": "PASIR RIS STREET 21", "BUILDING": "NIL", "ADDRESS": "219 PASIR RIS STREET 21 SINGAPORE 510219", "POSTAL": "510219", "X": "42286.4906498538", "Y": "39032.2087063007", "LATITUDE": "1.36926449241468", "LONGITUDE": "103.96169261157"}], "413 BT BATOK WEST AVE 4": [{"SEARCHVAL": "413 BUKIT BATOK WEST AVENUE 4 SINGAPORE 650413", "BLK_NO": "413", "ROAD_NAME": "BUKIT BATOK WEST AVENUE 4", "BUILDING": "NIL", "ADDRESS": "413 BUKIT BATOK WEST AVENUE 4 SINGAPORE 650413", "POSTAL": "650413", "X": "18348.9061123934", "Y": "38401.8597240616", "LATITUDE": "1.36356572674155", "LONGITUDE": "103.746596967526"}], "2 HOLLAND AVE": [{"SEARCHVAL": "2 HOLLAND AVENUE SINGAPORE 271002", "BLK_NO": "2", "ROAD_NAME": "HOLLAND AVENUE", "BUILDING": "NIL", "ADDRESS": "2 HOLLAND AVENUE SINGAPORE 271002", "POSTAL": "271002", "X": "23797.7521128021", "Y": "32406.2653361931", "LATITUDE": "1.30934498335733", "LONGITUDE": "103.795559353753"}, {"SEARCHVAL": "URBAN EDGE @ HOLLAND V", "BLK_NO": "2", "ROAD_NAME": "FORD AVENUE", "BUILDING": "URBAN EDGE @ HOLLAND V", "ADDRESS": "2 FORD AVENUE URBAN EDGE @ HOLLAND V SINGAPORE 268686", "POSTAL": "268686", "X": "23666.0034493562", "Y": "32813.6417052932", "LATITUDE": "1.31302913243704", "LONGITUDE": "103.794375471653"}], "174 YISHUN AVE 7": [{"SEARCHVAL": "174 YISHUN AVENUE 7 SINGAPORE 760174", "BLK_NO": "174", "ROAD_NAME": "YISHUN AVENUE 7", "BUILDING": "NIL", "ADDRESS": "174 YISHUN AVENUE 7 SINGAPORE 760174", "POSTAL": "760174", "X": "27846.489296549", "Y": "46565.403439898", "LATITUDE": "1.43739545335207", "LONGITUDE": "103.831939137109"}], "217 PASIR RIS ST 21": [{"SEARCHVAL": "217 PASIR RIS STREET 21 SINGAPORE 510217", "BLK_NO": "217", "ROAD_NAME": "PASIR RIS STREET 21", "BUILDING": "NIL", "ADDRESS": "217 PASIR RIS STREET 21 SINGAPORE 510217", "POSTAL": "510217", "X": "42212.0361317145", "Y": "39036.2193654832", "LATITUDE": "1.36930079924597", "LONGITUDE": "103.961023589094"}], "168B SIMEI LANE": [{"SEARCHVAL": "PARC LUMIERE", "BLK_NO": "168B", "ROAD_NAME": "SIMEI LANE", "BUILDING": "PARC LUMIERE", "ADDRESS": "168B SIMEI LANE PARC LUMIERE SINGAPORE 522168", "POSTAL": "522168", "X": "41961.1752642738", "Y": "36085.0859890971", "LATITUDE": "1.34261198398468", "LONGITUDE": "103.958768059936"}], "165 BT BATOK WEST AVE 8": [{"SEARCHVAL": "165 BUKIT BATOK WEST AVENUE 8 SINGAPORE 650165", "BLK_NO": "165", "ROAD_NAME": "BUKIT BATOK WEST AVENUE 8", "BUILDING": "NIL", "ADDRESS": "165 BUKIT BATOK WEST AVENUE 8 SINGAPORE 650165", "POSTAL": "650165", "X": "17834.465891826", "Y": "36605.4910001457", "LATITUDE": "1.34731985631578", "LONGITUDE": "103.741974986591"}, {"SEARCHVAL": "APPLELAND MONTESSORI CHILD CARE CENTRE", "BLK_NO": "165", "ROAD_NAME": "BUKIT BATOK WEST AVENUE 8", "BUILDING": "APPLELAND MONTESSORI CHILD CARE CENTRE", "ADDRESS": "165 BUKIT BATOK WEST AVENUE 8 APPLELAND MONTESSORI CHILD CARE CENTRE SINGAPORE 650165", "POSTAL": "650165", "X": "17834.4592026016", "Y": "36607.364588337", "LATITUDE": "1.34733680035748", "LONGITUDE": "103.741974925853"}, {"SEARCHVAL": "APPLELAND MONTESSORI CHILDCARE CENTRE", "BLK_NO": "165", "ROAD_NAME": "BUKIT BATOK WEST AVENUE 8", "BUILDING": "APPLELAND MONTESSORI CHILDCARE CENTRE", "ADDRESS": "165 BUKIT BATOK WEST AVENUE 8 APPLELAND MONTESSORI CHILDCARE CENTRE SINGAPORE 650165", "POSTAL": "650165", "X": "17828.8368035536", "Y": "36607.364588337", "LATITUDE": "1.3473367984506", "LONGITUDE": "103.741924405174"}], "306 SHUNFU RD": [{"SEARCHVAL": "SHUNFU GARDENS", "BLK_NO": "306", "ROAD_NAME": "SHUNFU ROAD", "BUILDING": "SHUNFU GARDENS", "ADDRESS": "306 SHUNFU ROAD SHUNFU GARDENS SINGAPORE 570306", "POSTAL": "570306", "X": "28665.8105328698", "Y": "36933.8829143941", "LATITUDE": "1.35029143230261", "LONGITUDE": "103.83930130692"}], "315 CLEMENTI AVE 4": [{"SEARCHVAL": "CLEMENTI MEADOWS", "BLK_NO": "315", "ROAD_NAME": "CLEMENTI AVENUE 4", "BUILDING": "CLEMENTI MEADOWS", "ADDRESS": "315 CLEMENTI AVENUE 4 CLEMENTI MEADOWS SINGAPORE 120315", "POSTAL": "120315", "X": "20443.491053924", "Y": "33415.3746092934", "LATITUDE": "1.31847036567508", "LONGITUDE": "103.765419463873"}], "975 JURONG WEST ST 93": [{"SEARCHVAL": "975 JURONG WEST STREET 93 SINGAPORE 640975", "BLK_NO": "975", "ROAD_NAME": "JURONG WEST STREET 93", "BUILDING": "NIL", "ADDRESS": "975 JURONG WEST STREET 93 SINGAPORE 640975", "POSTAL": "640975", "X": "12445.1999959266", "Y": "35823.0534812789", "LATITUDE": "1.34024147892312", "LONGITUDE": "103.693549591586"}], "3 JOO CHIAT RD": [{"SEARCHVAL": "3 JOO CHIAT ROAD SINGAPORE 420003", "BLK_NO": "3", "ROAD_NAME": "JOO CHIAT ROAD", "BUILDING": "NIL", "ADDRESS": "3 JOO CHIAT ROAD SINGAPORE 420003", "POSTAL": "420003", "X": "35327.0036941329", "Y": "33129.5173542555", "LATITUDE": "1.31588523188137", "LONGITUDE": "103.899155404874"}], "660 CHOA CHU KANG CRES": [{"SEARCHVAL": "660 CHOA CHU KANG CRESCENT SINGAPORE 680660", "BLK_NO": "660", "ROAD_NAME": "CHOA CHU KANG CRESCENT", "BUILDING": "NIL", "ADDRESS": "660 CHOA CHU KANG CRESCENT SINGAPORE 680660", "POSTAL": "680660", "X": "18712.4613421708", "Y": "42543.6153251845", "LATITUDE": "1.40102235751598", "LONGITUDE": "103.749862447053"}, {"SEARCHVAL": "HDB PUBLIC SHELTERS", "BLK_NO": "660", "ROAD_NAME": "CHOA CHU KANG CRESCENT", "BUILDING": "HDB PUBLIC SHELTERS", "ADDRESS": "660 CHOA CHU KANG CRESCENT HDB PUBLIC SHELTERS SINGAPORE 680660", "POSTAL": "680660", "X": "18706.3632514905", "Y": "42558.7567932364", "LATITUDE": "1.40115928939782", "LONGITUDE": "103.749807645909"}], "138 MARSILING RD": [{"SEARCHVAL": "138 MARSILING ROAD SINGAPORE 730138", "BLK_NO": "138", "ROAD_NAME": "MARSILING ROAD", "BUILDING": "NIL", "ADDRESS": "138 MARSILING ROAD SINGAPORE 730138", "POSTAL": "730138", "X": "21761.9659380484", "Y": "46643.3800919615", "LATITUDE": "1.43809995341553", "LONGITUDE": "103.777263836104"}], "512 SERANGOON NTH AVE 4": [{"SEARCHVAL": "512 SERANGOON NORTH AVENUE 4 SINGAPORE 550512", "BLK_NO": "512", "ROAD_NAME": "SERANGOON NORTH AVENUE 4", "BUILDING": "NIL", "ADDRESS": "512 SERANGOON NORTH AVENUE 4 SINGAPORE 550512", "POSTAL": "550512", "X": "32666.08304484", "Y": "39280.4246967882", "LATITUDE": "1.37151235781968", "LONGITUDE": "103.875246643629"}, {"SEARCHVAL": "HDB PUBLIC SHELTERS", "BLK_NO": "512", "ROAD_NAME": "SERANGOON NORTH AVENUE 4", "BUILDING": "HDB PUBLIC SHELTERS", "ADDRESS": "512 SERANGOON NORTH AVENUE 4 HDB PUBLIC SHELTERS SINGAPORE 550512", "POSTAL": "550512", "X": "32666.079352146", "Y": "39280.3050474487", "LATITUDE": "1.37151127575468", "LONGITUDE": "103.875246610429"}], "471 PASIR RIS DR 6": [{"SEARCHVAL": "471 PASIR RIS DRIVE 6 SINGAPORE 510471", "BLK_NO": "471", "ROAD_NAME": "PASIR RIS DRIVE 6", "BUILDING": "NIL", "ADDRESS": "471 PASIR RIS DRIVE 6 SINGAPORE 510471", "POSTAL": "510471", "X": "41855.2328718696", "Y": "39573.0923389662", "LATITUDE": "1.37415624476148", "LONGITUDE": "103.957817720179"}], "856E TAMPINES ST 82": [{"SEARCHVAL": "HDB PUBLIC SHELTERS", "BLK_NO": "856E", "ROAD_NAME": "TAMPINES STREET 82", "BUILDING": "HDB PUBLIC SHELTERS", "ADDRESS": "856E TAMPINES STREET 82 HDB PUBLIC SHELTERS SINGAPORE 525856", "POSTAL": "525856", "X": "39728.4431588799", "Y": "37207.5810360853", "LATITUDE": "1.3527643658377", "LONGITUDE": "103.938706092437"}, {"SEARCHVAL": "TAMPINES ARCADIA", "BLK_NO": "856E", "ROAD_NAME": "TAMPINES STREET 82", "BUILDING": "TAMPINES ARCADIA", "ADDRESS": "856E TAMPINES STREET 82 TAMPINES ARCADIA SINGAPORE 525856", "POSTAL": "525856", "X": "39738.3054365497", "Y": "37224.4878237508", "LATITUDE": "1.35291726067425", "LONGITUDE": "103.938794717769"}], "103 AH HOOD RD": [{"SEARCHVAL": "AH HOOD GARDENS", "BLK_NO": "103", "ROAD_NAME": "AH HOOD ROAD", "BUILDING": "AH HOOD GARDENS", "ADDRESS": "103 AH HOOD ROAD AH HOOD GARDENS SINGAPORE 320103", "POSTAL": "320103", "X": "29280.7657936811", "Y": "34464.8853449151", "LATITUDE": "1.32796267483785", "LONGITUDE": "103.844826964123"}], "785 CHOA CHU KANG DR": [{"SEARCHVAL": "785 CHOA CHU KANG DRIVE SINGAPORE 680785", "BLK_NO": "785", "ROAD_NAME": "CHOA CHU KANG DRIVE", "BUILDING": "NIL", "ADDRESS": "785 CHOA CHU KANG DRIVE SINGAPORE 680785", "POSTAL": "680785", "X": "18510.0823992565", "Y": "41861.6937848702", "LATITUDE": "1.39485524508122", "LONGITUDE": "103.748044130582"}, {"SEARCHVAL": "HDB PUBLIC SHELTERS", "BLK_NO": "785", "ROAD_NAME": "CHOA CHU KANG DRIVE", "BUILDING": "HDB PUBLIC SHELTERS", "ADDRESS": "785 CHOA CHU KANG DRIVE HDB PUBLIC SHELTERS SINGAPORE 680785", "POSTAL": "680785", "X": "18495.2875904236", "Y": "41834.7007969916", "LATITUDE": "1.39461112561124", "LONGITUDE": "103.747911196374"}], "417 SERANGOON CTRL": [{"SEARCHVAL": "417 SERANGOON CENTRAL SINGAPORE 550417", "BLK_NO": "417", "ROAD_NAME": "SERANGOON CENTRAL", "BUILDING": "NIL", "ADDRESS": "417 SERANGOON CENTRAL SINGAPORE 550417", "POSTAL": "550417", "X": "32644.8788088467", "Y": "36894.663598245", "LATITUDE": "1.34993639393716", "LONGITUDE": "103.875055737858"}, {"SEARCHVAL": "PCF SPARKLETOTS PRESCHOOL @ BRADDELL HEIGHTS BLK 417 (KN)", "BLK_NO": "417", "ROAD_NAME": "SERANGOON CENTRAL", "BUILDING": "PCF SPARKLETOTS PRESCHOOL @ BRADDELL HEIGHTS BLK 417 (KN)", "ADDRESS": "417 SERANGOON CENTRAL PCF SPARKLETOTS PRESCHOOL @ BRADDELL HEIGHTS BLK 417 (KN) SINGAPORE 550417", "POSTAL": "550417", "X": "32644.8791115265", "Y": "36894.6632955652", "LATITUDE": "1.34993639119978", "LONGITUDE": "103.875055740578"}], "113 TAMPINES ST 11": [{"SEARCHVAL": "113 TAMPINES STREET 11 SINGAPORE 521113", "BLK_NO": "113", "ROAD_NAME": "TAMPINES STREET 11", "BUILDING": "NIL", "ADDRESS": "113 TAMPINES STREET 11 SINGAPORE 521113", "POSTAL": "521113", "X": "40559.8788530035", "Y": "36512.5600269735", "LATITUDE": "1.34647851722058", "LONGITUDE": "103.946176771298"}, {"SEARCHVAL": "MY WORLD PRESCHOOL LTD.", "BLK_NO": "113", "ROAD_NAME": "TAMPINES STREET 11", "BUILDING": "MY WORLD PRESCHOOL LTD.", "ADDRESS": "113 TAMPINES STREET 11 MY WORLD PRESCHOOL LTD. SINGAPORE 521113", "POSTAL": "521113", "X": "40559.8800031869", "Y": "36512.5595124178", "LATITUDE": "1.34647851256665", "LONGITUDE": "103.946176781633"}], "507 PASIR RIS ST 52": [{"SEARCHVAL": "ELIAS PARKS ESTATE", "BLK_NO": "507", "ROAD_NAME": "PASIR RIS STREET 52", "BUILDING": "ELIAS PARKS ESTATE", "ADDRESS": "507 PASIR RIS STREET 52 ELIAS PARKS ESTATE SINGAPORE 510507", "POSTAL": "510507", "X": "40383.007738811", "Y": "39846.2024142705", "LATITUDE": "1.37662680679937", "LONGITUDE": "103.94458886029"}], "893A WOODLANDS DR 50": [{"SEARCHVAL": "893A WOODLANDS DRIVE 50 SINGAPORE 730893", "BLK_NO": "893A", "ROAD_NAME": "WOODLANDS DRIVE 50", "BUILDING": "NIL", "ADDRESS": "893A WOODLANDS DRIVE 50 SINGAPORE 730893", "POSTAL": "730893", "X": "23247.5336220805", "Y": "46504.5054371096", "LATITUDE": "1.43684431239404", "LONGITUDE": "103.79061311257"}], "220 PASIR RIS ST 21": [{"SEARCHVAL": "220 PASIR RIS STREET 21 SINGAPORE 510220", "BLK_NO": "220", "ROAD_NAME": "PASIR RIS STREET 21", "BUILDING": "NIL", "ADDRESS": "220 PASIR RIS STREET 21 SINGAPORE 510220", "POSTAL": "510220", "X": "42274.2437998895", "Y": "39099.4210947789", "LATITUDE": "1.36987234164767", "LONGITUDE": "103.961582597621"}, {"SEARCHVAL": "HDB PUBLIC SHELTERS", "BLK_NO": "220", "ROAD_NAME": "PASIR RIS STREET 21", "BUILDING": "HDB PUBLIC SHELTERS", "ADDRESS": "220 PASIR RIS STREET 21 HDB PUBLIC SHELTERS SINGAPORE 510220", "POSTAL": "510220", "X": "42274.2437998895", "Y": "39096.7529417463", "LATITUDE": "1.36984821188537", "LONGITUDE": "103.961582596338"}], "634 BEDOK RESERVOIR RD": [{"SEARCHVAL": "EUNOS TENAGA VILLE", "BLK_NO": "634", "ROAD_NAME": "BEDOK RESERVOIR ROAD", "BUILDING": "EUNOS TENAGA VILLE", "ADDRESS": "634 BEDOK RESERVOIR ROAD EUNOS TENAGA VILLE SINGAPORE 410634", "POSTAL": "410634", "X": "35960.6332112513", "Y": "34708.784999853", "LATITUDE": "1.33016740105574", "LONGITUDE": "103.904849291949"}], "306 CANBERRA RD": [{"SEARCHVAL": "306 CANBERRA ROAD SINGAPORE 750306", "BLK_NO": "306", "ROAD_NAME": "CANBERRA ROAD", "BUILDING": "NIL", "ADDRESS": "306 CANBERRA ROAD SINGAPORE 750306", "POSTAL": "750306", "X": "26787.3239821605", "Y": "47481.2227615379", "LATITUDE": "1.44567776517239", "LONGITUDE": "103.82242147898"}], "438A BT BATOK WEST AVE 8": [{"SEARCHVAL": "WEST EDGE @ BUKIT BATOK", "BLK_NO": "438A", "ROAD_NAME": "BUKIT BATOK WEST AVENUE 8", "BUILDING": "WEST EDGE @ BUKIT BATOK", "ADDRESS": "438A BUKIT BATOK WEST AVENUE 8 WEST EDGE @ BUKIT BATOK SINGAPORE 651438", "POSTAL": "651438", "X": "17708.7643477749", "Y": "37729.5758729782", "LATITUDE": "1.3574856237206", "LONGITUDE": "103.740845096872"}], "251 JURONG EAST ST 24": [{"SEARCHVAL": "251 JURONG EAST STREET 24 SINGAPORE 600251", "BLK_NO": "251", "ROAD_NAME": "JURONG EAST STREET 24", "BUILDING": "NIL", "ADDRESS": "251 JURONG EAST STREET 24 SINGAPORE 600251", "POSTAL": "600251", "X": "17578.6509424178", "Y": "36146.1720166001", "LATITUDE": "1.34316585637535", "LONGITUDE": "103.73967649195"}, {"SEARCHVAL": "PCF SPARKLETOTS PRESCHOOL @ YUHUA BLK 251 (KN)", "BLK_NO": "251", "ROAD_NAME": "JURONG EAST STREET 24", "BUILDING": "PCF SPARKLETOTS PRESCHOOL @ YUHUA BLK 251 (KN)", "ADDRESS": "251 JURONG EAST STREET 24 PCF SPARKLETOTS PRESCHOOL @ YUHUA BLK 251 (KN) SINGAPORE 600251", "POSTAL": "600251", "X": "17578.6512148296", "Y": "36146.1717139203", "LATITUDE": "1.34316585363812", "LONGITUDE": "103.739676494398"}], "91 BEDOK NTH ST 4": [{"SEARCHVAL": "91 BEDOK NORTH STREET 4 SINGAPORE 460091", "BLK_NO": "91", "ROAD_NAME": "BEDOK NORTH STREET 4", "BUILDING": "NIL", "ADDRESS": "91 BEDOK NORTH STREET 4 SINGAPORE 460091", "POSTAL": "460091", "X": "39913.6764089325", "Y": "34972.2528457288", "LATITUDE": "1.33254881363421", "LONGITUDE": "103.940369649715"}, {"SEARCHVAL": "NTUC ELDERCARE CENTRE SILVER CIRCLE (FENGSHAN)", "BLK_NO": "91", "ROAD_NAME": "BEDOK NORTH STREET 4", "BUILDING": "NTUC ELDERCARE CENTRE SILVER CIRCLE (FENGSHAN)", "ADDRESS": "91 BEDOK NORTH STREET 4 NTUC ELDERCARE CENTRE SILVER CIRCLE (FENGSHAN) SINGAPORE 460091", "POSTAL": "460091", "X": "39911.2203436624", "Y": "34971.9514674135", "LATITUDE": "1.33254608904519", "LONGITUDE": "103.940347580498"}], "468B ADMIRALTY DR": [{"SEARCHVAL": "BLUE RIVERVIEW", "BLK_NO": "468B", "ROAD_NAME": "ADMIRALTY DRIVE", "BUILDING": "BLUE RIVERVIEW", "ADDRESS": "468B ADMIRALTY DRIVE BLUE RIVERVIEW SINGAPORE 752468", "POSTAL": "752468", "X": "25862.4910668442", "Y": "47960.1127509438", "LATITUDE": "1.45000861656514", "LONGITUDE": "103.814110899773"}], "414 HOUGANG AVE 10": [{"SEARCHVAL": "HARMONY VIEW", "BLK_NO": "414", "ROAD_NAME": "HOUGANG AVENUE 10", "BUILDING": "HARMONY VIEW", "ADDRESS": "414 HOUGANG AVENUE 10 HARMONY VIEW SINGAPORE 530414", "POSTAL": "530414", "X": "34975.2227705587", "Y": "39655.5422358084", "LATITUDE": "1.37490432858877", "LONGITUDE": "103.895995982843"}, {"SEARCHVAL": "PCF SPARKLETOTS PRESCHOOL @ BEDOK RESERVOIR-PUNGGOL BLK 414 (KN)", "BLK_NO": "414", "ROAD_NAME": "HOUGANG AVENUE 10", "BUILDING": "PCF SPARKLETOTS PRESCHOOL @ BEDOK RESERVOIR-PUNGGOL BLK 414 (KN)", "ADDRESS": "414 HOUGANG AVENUE 10 PCF SPARKLETOTS PRESCHOOL @ BEDOK RESERVOIR-PUNGGOL BLK 414 (KN) SINGAPORE 530414", "POSTAL": "530414", "X": "34975.2234061863", "Y": "39655.5419028606", "LATITUDE": "1.37490432557755", "LONGITUDE": "103.895995988554"}], "803D KEAT HONG CL": [{"SEARCHVAL": "KEAT HONG PRIDE", "BLK_NO": "803D", "ROAD_NAME": "KEAT HONG CLOSE", "BUILDING": "KEAT HONG PRIDE", "ADDRESS": "803D KEAT HONG CLOSE KEAT HONG PRIDE SINGAPORE 684803", "POSTAL": "684803", "X": "18098.6127999155", "Y": "39433.6729512122", "LATITUDE": "1.37289698327409", "LONGITUDE": "103.744347570659"}], "436 WOODLANDS ST 41": [{"SEARCHVAL": "436 WOODLANDS STREET 41 SINGAPORE 730436", "BLK_NO": "436", "ROAD_NAME": "WOODLANDS STREET 41", "BUILDING": "NIL", "ADDRESS": "436 WOODLANDS STREET 41 SINGAPORE 730436", "POSTAL": "730436", "X": "21495.7967654308", "Y": "45373.5757321715", "LATITUDE": "1.42661624805888", "LONGITUDE": "103.774872341652"}], "393 YISHUN AVE 6": [{"SEARCHVAL": "393 YISHUN AVENUE 6 SINGAPORE 760393", "BLK_NO": "393", "ROAD_NAME": "YISHUN AVENUE 6", "BUILDING": "NIL", "ADDRESS": "393 YISHUN AVENUE 6 SINGAPORE 760393", "POSTAL": "760393", "X": "29689.8805136215", "Y": "45583.491826782", "LATITUDE": "1.42851535023391", "LONGITUDE": "103.848503721066"}], "18A HOLLAND DR": [{"SEARCHVAL": "BUONA VISTA COURT", "BLK_NO": "18A", "ROAD_NAME": "HOLLAND DRIVE", "BUILDING": "BUONA VISTA COURT", "ADDRESS": "18A HOLLAND DRIVE BUONA VISTA COURT SINGAPORE 272018", "POSTAL": "272018", "X": "23389.0089020934", "Y": "32595.7559294961", "LATITUDE": "1.31105861060205", "LONGITUDE": "103.791886571185"}, {"SEARCHVAL": "MY FIRST SKOOL", "BLK_NO": "18A", "ROAD_NAME": "HOLLAND DRIVE", "BUILDING": "MY FIRST SKOOL", "ADDRESS": "18A HOLLAND DRIVE MY FIRST SKOOL SINGAPORE 272018", "POSTAL": "272018", "X": "23389.0093863811", "Y": "32595.7559900321", "LATITUDE": "1.31105861114958", "LONGITUDE": "103.791886575536"}], "116 TECK WHYE LANE": [{"SEARCHVAL": "116 TECK WHYE LANE SINGAPORE 680116", "BLK_NO": "116", "ROAD_NAME": "TECK WHYE LANE", "BUILDING": "NIL", "ADDRESS": "116 TECK WHYE LANE SINGAPORE 680116", "POSTAL": "680116", "X": "18925.71847736", "Y": "40106.4858563822", "LATITUDE": "1.37898192310747", "LONGITUDE": "103.751779491677"}, {"SEARCHVAL": "NEIGHBOURHOOD POLICE POST CHOA CHU KANG", "BLK_NO": "116", "ROAD_NAME": "TECK WHYE LANE", "BUILDING": "NEIGHBOURHOOD POLICE POST CHOA CHU KANG", "ADDRESS": "116 TECK WHYE LANE NEIGHBOURHOOD POLICE POST CHOA CHU KANG SINGAPORE 680116", "POSTAL": "680116", "X": "18928.1121905847", "Y": "40146.502733903", "LATITUDE": "1.37934382180082", "LONGITUDE": "103.751800988619"}], "679C PUNGGOL DR": [{"SEARCHVAL": "WATERWAY BROOKS", "BLK_NO": "679C", "ROAD_NAME": "PUNGGOL DRIVE", "BUILDING": "WATERWAY BROOKS", "ADDRESS": "679C PUNGGOL DRIVE WATERWAY BROOKS SINGAPORE 823679", "POSTAL": "823679", "X": "36400.6740014106", "Y": "43139.7449595034", "LATITUDE": "1.40641380778331", "LONGITUDE": "103.908805683601"}], "132 MARSILING RISE": [{"SEARCHVAL": "132 MARSILING RISE SINGAPORE 730132", "BLK_NO": "132", "ROAD_NAME": "MARSILING RISE", "BUILDING": "NIL", "ADDRESS": "132 MARSILING RISE SINGAPORE 730132", "POSTAL": "730132", "X": "21846.7567304829", "Y": "46663.4965874236", "LATITUDE": "1.43828189832914", "LONGITUDE": "103.778025758394"}], "30 JLN KLINIK": [{"SEARCHVAL": "30 JALAN KLINIK SINGAPORE 160030", "BLK_NO": "30", "ROAD_NAME": "JALAN KLINIK", "BUILDING": "NIL", "ADDRESS": "30 JALAN KLINIK SINGAPORE 160030", "POSTAL": "160030", "X": "27430.6734871576", "Y": "30009.5007359218", "LATITUDE": "1.28766976882827", "LONGITUDE": "103.828202949008"}], "969 HOUGANG ST 91": [{"SEARCHVAL": "969 HOUGANG STREET 91 SINGAPORE 530969", "BLK_NO": "969", "ROAD_NAME": "HOUGANG STREET 91", "BUILDING": "NIL", "ADDRESS": "969 HOUGANG STREET 91 SINGAPORE 530969", "POSTAL": "530969", "X": "33139.0090912683", "Y": "40081.7845786233", "LATITUDE": "1.37875948902978", "LONGITUDE": "103.879496357849"}], "534 BEDOK NTH ST 3": [{"SEARCHVAL": "534 BEDOK NORTH STREET 3 SINGAPORE 460534", "BLK_NO": "534", "ROAD_NAME": "BEDOK NORTH STREET 3", "BUILDING": "NIL", "ADDRESS": "534 BEDOK NORTH STREET 3 SINGAPORE 460534", "POSTAL": "460534", "X": "38182.2950134762", "Y": "35026.1623342913", "LATITUDE": "1.33303698213001", "LONGITUDE": "103.924812248346"}, {"SEARCHVAL": "MORAL STUDENT CARE CENTRE (BEDOK NORTH)", "BLK_NO": "534", "ROAD_NAME": "BEDOK NORTH STREET 3", "BUILDING": "MORAL STUDENT CARE CENTRE (BEDOK NORTH)", "ADDRESS": "534 BEDOK NORTH STREET 3 MORAL STUDENT CARE CENTRE (BEDOK NORTH) SINGAPORE 460534", "POSTAL": "460534", "X": "38178.0555888731", "Y": "35026.8209050819", "LATITUDE": "1.33304293942699", "LONGITUDE": "103.924774154974"}], "331C ANCHORVALE ST": [{"SEARCHVAL": "ANCHORVALE HARVEST", "BLK_NO": "331C", "ROAD_NAME": "ANCHORVALE STREET", "BUILDING": "ANCHORVALE HARVEST", "ADDRESS": "331C ANCHORVALE STREET ANCHORVALE HARVEST SINGAPORE 543331", "POSTAL": "543331", "X": "34282.7046512878", "Y": "41941.5058571994", "LATITUDE": "1.39557791060487", "LONGITUDE": "103.889773699699"}], "684A WOODLANDS DR 73": [{"SEARCHVAL": "684A WOODLANDS DRIVE 73 SINGAPORE 731684", "BLK_NO": "684A", "ROAD_NAME": "WOODLANDS DRIVE 73", "BUILDING": "NIL", "ADDRESS": "684A WOODLANDS DRIVE 73 SINGAPORE 731684", "POSTAL": "731684", "X": "24865.0574868545", "Y": "46978.5098409932", "LATITUDE": "1.4411312628412", "LONGITUDE": "103.805148060847"}], "573 HOUGANG ST 51": [{"SEARCHVAL": "573 HOUGANG STREET 51 SINGAPORE 530573", "BLK_NO": "573", "ROAD_NAME": "HOUGANG STREET 51", "BUILDING": "NIL", "ADDRESS": "573 HOUGANG STREET 51 SINGAPORE 530573", "POSTAL": "530573", "X": "34035.9188230308", "Y": "39948.7843037825", "LATITUDE": "1.377556511693", "LONGITUDE": "103.887555722487"}, {"SEARCHVAL": "HDB PUBLIC SHELTERS", "BLK_NO": "573", "ROAD_NAME": "HOUGANG STREET 51", "BUILDING": "HDB PUBLIC SHELTERS", "ADDRESS": "573 HOUGANG STREET 51 HDB PUBLIC SHELTERS SINGAPORE 530573", "POSTAL": "530573", "X": "34034.8557509063", "Y": "39953.9473559093", "LATITUDE": "1.3776032046872", "LONGITUDE": "103.887546171065"}], "311 SHUNFU RD": [{"SEARCHVAL": "SHUNFU GARDENS", "BLK_NO": "311", "ROAD_NAME": "SHUNFU ROAD", "BUILDING": "SHUNFU GARDENS", "ADDRESS": "311 SHUNFU ROAD SHUNFU GARDENS SINGAPORE 570311", "POSTAL": "570311", "X": "28670.082979843", "Y": "36999.2073373888", "LATITUDE": "1.35088220305116", "LONGITUDE": "103.839339699004"}], "100 WHAMPOA DR": [{"SEARCHVAL": "WHAMPOA VIEW", "BLK_NO": "100", "ROAD_NAME": "WHAMPOA DRIVE", "BUILDING": "WHAMPOA VIEW", "ADDRESS": "100 WHAMPOA DRIVE WHAMPOA VIEW SINGAPORE 320100", "POSTAL": "320100", "X": "30340.4490235392", "Y": "33670.6111375317", "LATITUDE": "1.32077947735201", "LONGITUDE": "103.854348739922"}], "710 ANG MO KIO AVE 8": [{"SEARCHVAL": "710 ANG MO KIO AVENUE 8 SINGAPORE 560710", "BLK_NO": "710", "ROAD_NAME": "ANG MO KIO AVENUE 8", "BUILDING": "NIL", "ADDRESS": "710 ANG MO KIO AVENUE 8 SINGAPORE 560710", "POSTAL": "560710", "X": "29654.6561475703", "Y": "39228.8028018977", "LATITUDE": "1.37104583077812", "LONGITUDE": "103.848186835874"}], "142 LOR 2 TOA PAYOH": [{"SEARCHVAL": "142 LORONG 2 TOA PAYOH SINGAPORE 310142", "BLK_NO": "142", "ROAD_NAME": "LORONG 2 TOA PAYOH", "BUILDING": "NIL", "ADDRESS": "142 LORONG 2 TOA PAYOH SINGAPORE 310142", "POSTAL": "310142", "X": "29318.1586791575", "Y": "35335.6709918063", "LATITUDE": "1.33583774995002", "LONGITUDE": "103.845162997311"}], "17 CANTONMENT CL": [{"SEARCHVAL": "CANTONMENT TOWERS", "BLK_NO": "17", "ROAD_NAME": "CANTONMENT CLOSE", "BUILDING": "CANTONMENT TOWERS", "ADDRESS": "17 CANTONMENT CLOSE CANTONMENT TOWERS SINGAPORE 080017", "POSTAL": "080017", "X": "28726.2566043921", "Y": "28479.7867436167", "LATITUDE": "1.27383556871582", "LONGITUDE": "103.839844255368"}], "679C JURONG WEST CTRL 1": [{"SEARCHVAL": "679C JURONG WEST CENTRAL 1 SINGAPORE 643679", "BLK_NO": "679C", "ROAD_NAME": "JURONG WEST CENTRAL 1", "BUILDING": "NIL", "ADDRESS": "679C JURONG WEST CENTRAL 1 SINGAPORE 643679", "POSTAL": "643679", "X": "13874.8433122551", "Y": "36230.077833727", "LATITUDE": "1.34392315743643", "LONGITUDE": "103.706395562005"}], "676B JURONG WEST ST 64": [{"SEARCHVAL": "EDELWEISS@JURONG", "BLK_NO": "676B", "ROAD_NAME": "JURONG WEST STREET 64", "BUILDING": "EDELWEISS@JURONG", "ADDRESS": "676B JURONG WEST STREET 64 EDELWEISS@JURONG SINGAPORE 642676", "POSTAL": "642676", "X": "13629.3134237146", "Y": "36459.9799082559", "LATITUDE": "1.34600218842428", "LONGITUDE": "103.70418922292"}], "747B BEDOK RESERVOIR CRES": [{"SEARCHVAL": "BELVIA", "BLK_NO": "747B", "ROAD_NAME": "BEDOK RESERVOIR CRESCENT", "BUILDING": "BELVIA", "ADDRESS": "747B BEDOK RESERVOIR CRESCENT BELVIA SINGAPORE 472747", "POSTAL": "472747", "X": "37827.5430754237", "Y": "35426.775080286", "LATITUDE": "1.33666009454076", "LONGITUDE": "103.921624733709"}], "108 JLN RAJAH": [{"SEARCHVAL": "RAJAH COURT", "BLK_NO": "108", "ROAD_NAME": "JALAN RAJAH", "BUILDING": "RAJAH COURT", "ADDRESS": "108 JALAN RAJAH RAJAH COURT SINGAPORE 320108", "POSTAL": "320108", "X": "30496.4848987274", "Y": "34512.074039571", "LATITUDE": "1.32838935725024", "LONGITUDE": "103.855750872335"}], "104A ANG MO KIO ST 11": [{"SEARCHVAL": "KEBUN BARU HEIGHTS", "BLK_NO": "104A", "ROAD_NAME": "ANG MO KIO STREET 11", "BUILDING": "KEBUN BARU HEIGHTS", "ADDRESS": "104A ANG MO KIO STREET 11 KEBUN BARU HEIGHTS SINGAPORE 560104", "POSTAL": "560104", "X": "28610.4221506221", "Y": "39315.177033633", "LATITUDE": "1.37182700854497", "LONGITUDE": "103.838803655863"}], "414 SERANGOON CTRL": [{"SEARCHVAL": "414 SERANGOON CENTRAL SINGAPORE 550414", "BLK_NO": "414", "ROAD_NAME": "SERANGOON CENTRAL", "BUILDING": "NIL", "ADDRESS": "414 SERANGOON CENTRAL SINGAPORE 550414", "POSTAL": "550414", "X": "32572.5688076224", "Y": "36769.9946767259", "LATITUDE": "1.34880894396479", "LONGITUDE": "103.874405968198"}], "81 MACPHERSON LANE": [{"SEARCHVAL": "MACPHERSON VIEW", "BLK_NO": "81", "ROAD_NAME": "MACPHERSON LANE", "BUILDING": "MACPHERSON VIEW", "ADDRESS": "81 MACPHERSON LANE MACPHERSON VIEW SINGAPORE 360081", "POSTAL": "360081", "X": "33895.9123574635", "Y": "34930.1018332113", "LATITUDE": "1.33216938209876", "LONGITUDE": "103.886296676732"}], "2 BEDOK STH AVE 1": [{"SEARCHVAL": "2 BEDOK SOUTH AVENUE 1 SINGAPORE 460002", "BLK_NO": "2", "ROAD_NAME": "BEDOK SOUTH AVENUE 1", "BUILDING": "NIL", "ADDRESS": "2 BEDOK SOUTH AVENUE 1 SINGAPORE 460002", "POSTAL": "460002", "X": "39126.8995811166", "Y": "33728.5131244883", "LATITUDE": "1.32130118793544", "LONGITUDE": "103.933299574181"}], "230D TAMPINES ST 24": [{"SEARCHVAL": "230D TAMPINES STREET 24 SINGAPORE 527230", "BLK_NO": "230D", "ROAD_NAME": "TAMPINES STREET 24", "BUILDING": "NIL", "ADDRESS": "230D TAMPINES STREET 24 SINGAPORE 527230", "POSTAL": "527230", "X": "41160.9394142814", "Y": "37576.385490939", "LATITUDE": "1.35609909806697", "LONGITUDE": "103.95157812569"}], "288C JURONG EAST ST 21": [{"SEARCHVAL": "288C JURONG EAST STREET 21 SINGAPORE 603288", "BLK_NO": "288C", "ROAD_NAME": "JURONG EAST STREET 21", "BUILDING": "NIL", "ADDRESS": "288C JURONG EAST STREET 21 SINGAPORE 603288", "POSTAL": "603288", "X": "18001.5517300973", "Y": "35743.5296509583", "LATITUDE": "1.33952464983395", "LONGITUDE": "103.743476639411"}], "443 SIN MING AVE": [{"SEARCHVAL": "SCHOOL HOUSE @ CABCY", "BLK_NO": "443", "ROAD_NAME": "SIN MING AVENUE", "BUILDING": "SCHOOL HOUSE @ CABCY", "ADDRESS": "443 SIN MING AVENUE SCHOOL HOUSE @ CABCY SINGAPORE 570443", "POSTAL": "570443", "X": "27930.0292948242", "Y": "37868.5346122887", "LATITUDE": "1.35874409683171", "LONGITUDE": "103.832689845734"}, {"SEARCHVAL": "SIN MING COURT", "BLK_NO": "443", "ROAD_NAME": "SIN MING AVENUE", "BUILDING": "SIN MING COURT", "ADDRESS": "443 SIN MING AVENUE SIN MING COURT SINGAPORE 570443", "POSTAL": "570443", "X": "27940.914811952", "Y": "37891.1207330786", "LATITUDE": "1.35894835768493", "LONGITUDE": "103.832787659271"}], "35 BEDOK STH AVE 2": [{"SEARCHVAL": "BEDOK SOUTH PARKVIEW", "BLK_NO": "35", "ROAD_NAME": "BEDOK SOUTH AVENUE 2", "BUILDING": "BEDOK SOUTH PARKVIEW", "ADDRESS": "35 BEDOK SOUTH AVENUE 2 BEDOK SOUTH PARKVIEW SINGAPORE 460035", "POSTAL": "460035", "X": "39846.5693833055", "Y": "33842.548055822", "LATITUDE": "1.32233220742919", "LONGITUDE": "103.939766219283"}], "482 PASIR RIS DR 4": [{"SEARCHVAL": "482 PASIR RIS DRIVE 4 SINGAPORE 510482", "BLK_NO": "482", "ROAD_NAME": "PASIR RIS DRIVE 4", "BUILDING": "NIL", "ADDRESS": "482 PASIR RIS DRIVE 4 SINGAPORE 510482", "POSTAL": "510482", "X": "42066.3903472964", "Y": "39529.1549705863", "LATITUDE": "1.37375879162392", "LONGITUDE": "103.95971509662"}, {"SEARCHVAL": "HDB PUBLIC SHELTERS", "BLK_NO": "482", "ROAD_NAME": "PASIR RIS DRIVE 4", "BUILDING": "HDB PUBLIC SHELTERS", "ADDRESS": "482 PASIR RIS DRIVE 4 HDB PUBLIC SHELTERS SINGAPORE 510482", "POSTAL": "510482", "X": "42070.9247031333", "Y": "39527.5365414973", "LATITUDE": "1.3737441529967", "LONGITUDE": "103.959755840195"}, {"SEARCHVAL": "KNOWLEDGE TREE EDUCATION CENTRE @ PASIR RIS", "BLK_NO": "482", "ROAD_NAME": "PASIR RIS DRIVE 4", "BUILDING": "KNOWLEDGE TREE EDUCATION CENTRE @ PASIR RIS", "ADDRESS": "482 PASIR RIS DRIVE 4 KNOWLEDGE TREE EDUCATION CENTRE @ PASIR RIS SINGAPORE 510482", "POSTAL": "510482", "X": "42066.3904078323", "Y": "39529.1543046907", "LATITUDE": "1.37375878560179", "LONGITUDE": "103.959715097164"}], "528A PASIR RIS ST 51": [{"SEARCHVAL": "COSTA RIS", "BLK_NO": "528A", "ROAD_NAME": "PASIR RIS STREET 51", "BUILDING": "COSTA RIS", "ADDRESS": "528A PASIR RIS STREET 51 COSTA RIS SINGAPORE 511528", "POSTAL": "511528", "X": "40761.1616711551", "Y": "39136.7550182231", "LATITUDE": "1.37021066906466", "LONGITUDE": "103.947986536645"}], "132 BEDOK NTH ST 2": [{"SEARCHVAL": "132 BEDOK NORTH STREET 2 SINGAPORE 460132", "BLK_NO": "132", "ROAD_NAME": "BEDOK NORTH STREET 2", "BUILDING": "NIL", "ADDRESS": "132 BEDOK NORTH STREET 2 SINGAPORE 460132", "POSTAL": "460132", "X": "39506.3436257299", "Y": "34441.9259290826", "LATITUDE": "1.32775288998395", "LONGITUDE": "103.936709340476"}], "175 ANG MO KIO AVE 4": [{"SEARCHVAL": "KEBUN BARU LINK 1", "BLK_NO": "175", "ROAD_NAME": "ANG MO KIO AVENUE 4", "BUILDING": "KEBUN BARU LINK 1", "ADDRESS": "175 ANG MO KIO AVENUE 4 KEBUN BARU LINK 1 SINGAPORE 560175", "POSTAL": "560175", "X": "28423.4230361301", "Y": "39745.936570337", "LATITUDE": "1.37572264709308", "LONGITUDE": "103.837123341994"}], "9 CANTONMENT CL": [{"SEARCHVAL": "CANTONMENT TOWERS", "BLK_NO": "9", "ROAD_NAME": "CANTONMENT CLOSE", "BUILDING": "CANTONMENT TOWERS", "ADDRESS": "9 CANTONMENT CLOSE CANTONMENT TOWERS SINGAPORE 080009", "POSTAL": "080009", "X": "28655.3651727606", "Y": "28641.9149283003", "LATITUDE": "1.27530180077967", "LONGITUDE": "103.839207273761"}], "224 CHOA CHU KANG CTRL": [{"SEARCHVAL": "224 CHOA CHU KANG CENTRAL SINGAPORE 680224", "BLK_NO": "224", "ROAD_NAME": "CHOA CHU KANG CENTRAL", "BUILDING": "NIL", "ADDRESS": "224 CHOA CHU KANG CENTRAL SINGAPORE 680224", "POSTAL": "680224", "X": "18134.4831452752", "Y": "40305.5053557847", "LATITUDE": "1.38078152626664", "LONGITUDE": "103.74466959968"}], "712 PASIR RIS ST 72": [{"SEARCHVAL": "712 PASIR RIS STREET 72 SINGAPORE 510712", "BLK_NO": "712", "ROAD_NAME": "PASIR RIS STREET 72", "BUILDING": "NIL", "ADDRESS": "712 PASIR RIS STREET 72 SINGAPORE 510712", "POSTAL": "510712", "X": "39670.1321303919", "Y": "40465.8124369588", "LATITUDE": "1.38223062076004", "LONGITUDE": "103.938183410003"}], "403 BT BATOK WEST AVE 7": [{"SEARCHVAL": "403 BUKIT BATOK WEST AVENUE 7 SINGAPORE 650403", "BLK_NO": "403", "ROAD_NAME": "BUKIT BATOK WEST AVENUE 7", "BUILDING": "NIL", "ADDRESS": "403 BUKIT BATOK WEST AVENUE 7 SINGAPORE 650403", "POSTAL": "650403", "X": "18156.1788727874", "Y": "38575.9865007065", "LATITUDE": "1.36514040189139", "LONGITUDE": "103.744865126672"}], "258C PUNGGOL FIELD": [{"SEARCHVAL": "PUNGGOL TOPAZ", "BLK_NO": "258C", "ROAD_NAME": "PUNGGOL FIELD", "BUILDING": "PUNGGOL TOPAZ", "ADDRESS": "258C PUNGGOL FIELD PUNGGOL TOPAZ SINGAPORE 823258", "POSTAL": "823258", "X": "35016.0516170105", "Y": "42888.4911833666", "LATITUDE": "1.40414193190214", "LONGITUDE": "103.896363634267"}], "627 WOODLANDS AVE 6": [{"SEARCHVAL": "627 WOODLANDS AVENUE 6 SINGAPORE 730627", "BLK_NO": "627", "ROAD_NAME": "WOODLANDS AVENUE 6", "BUILDING": "NIL", "ADDRESS": "627 WOODLANDS AVENUE 6 SINGAPORE 730627", "POSTAL": "730627", "X": "24423.5053254645", "Y": "46133.0715117063", "LATITUDE": "1.43348537327986", "LONGITUDE": "103.801180391147"}], "775 PASIR RIS ST 71": [{"SEARCHVAL": "775 PASIR RIS STREET 71 SINGAPORE 510775", "BLK_NO": "775", "ROAD_NAME": "PASIR RIS STREET 71", "BUILDING": "NIL", "ADDRESS": "775 PASIR RIS STREET 71 SINGAPORE 510775", "POSTAL": "510775", "X": "39553.3865497755", "Y": "39565.8095291369", "LATITUDE": "1.37409137626789", "LONGITUDE": "103.937134012769"}, {"SEARCHVAL": "HANIS MONTESSORI KINDERGARTEN (PASIR RIS)", "BLK_NO": "775", "ROAD_NAME": "PASIR RIS STREET 71", "BUILDING": "HANIS MONTESSORI KINDERGARTEN (PASIR RIS)", "ADDRESS": "775 PASIR RIS STREET 71 HANIS MONTESSORI KINDERGARTEN (PASIR RIS) SINGAPORE 510775", "POSTAL": "510775", "X": "39543.9917005776", "Y": "39562.767294094", "LATITUDE": "1.37406386711662", "LONGITUDE": "103.937049592242"}, {"SEARCHVAL": "HDB PUBLIC SHELTERS", "BLK_NO": "775", "ROAD_NAME": "PASIR RIS STREET 71", "BUILDING": "HDB PUBLIC SHELTERS", "ADDRESS": "775 PASIR RIS STREET 71 HDB PUBLIC SHELTERS SINGAPORE 510775", "POSTAL": "510775", "X": "39543.9906411981", "Y": "39562.7682324015", "LATITUDE": "1.37406387560275", "LONGITUDE": "103.937049582723"}], "822 WOODLANDS ST 82": [{"SEARCHVAL": "822 WOODLANDS STREET 82 SINGAPORE 730822", "BLK_NO": "822", "ROAD_NAME": "WOODLANDS STREET 82", "BUILDING": "NIL", "ADDRESS": "822 WOODLANDS STREET 82 SINGAPORE 730822", "POSTAL": "730822", "X": "23120.4558533467", "Y": "47064.7263159975", "LATITUDE": "1.44191072365748", "LONGITUDE": "103.789471100426"}], "207 SERANGOON CTRL": [{"SEARCHVAL": "207 SERANGOON CENTRAL SINGAPORE 550207", "BLK_NO": "207", "ROAD_NAME": "SERANGOON CENTRAL", "BUILDING": "NIL", "ADDRESS": "207 SERANGOON CENTRAL SINGAPORE 550207", "POSTAL": "550207", "X": "32451.6300821491", "Y": "37326.2507826947", "LATITUDE": "1.35383954328532", "LONGITUDE": "103.873319340588"}], "206C COMPASSVALE LANE": [{"SEARCHVAL": "COMPASSVALE PLACE", "BLK_NO": "206C", "ROAD_NAME": "COMPASSVALE LANE", "BUILDING": "COMPASSVALE PLACE", "ADDRESS": "206C COMPASSVALE LANE COMPASSVALE PLACE SINGAPORE 543206", "POSTAL": "543206", "X": "35147.8419897379", "Y": "40972.9338893313", "LATITUDE": "1.38681829811425", "LONGITUDE": "103.897547410011"}], "863A TAMPINES ST 83": [{"SEARCHVAL": "TAMPINES PARKVIEW", "BLK_NO": "863A", "ROAD_NAME": "TAMPINES STREET 83", "BUILDING": "TAMPINES PARKVIEW", "ADDRESS": "863A TAMPINES STREET 83 TAMPINES PARKVIEW SINGAPORE 521863", "POSTAL": "521863", "X": "39501.3991992502", "Y": "37506.1075913366", "LATITUDE": "1.3554642176108", "LONGITUDE": "103.936666074781"}], "138C YUAN CHING RD": [{"SEARCHVAL": "LAKE VISTA @ YUAN CHING", "BLK_NO": "138C", "ROAD_NAME": "YUAN CHING ROAD", "BUILDING": "LAKE VISTA @ YUAN CHING", "ADDRESS": "138C YUAN CHING ROAD LAKE VISTA @ YUAN CHING SINGAPORE 613138", "POSTAL": "613138", "X": "15811.2379035167", "Y": "34517.7090300992", "LATITUDE": "1.32843797727643", "LONGITUDE": "103.723795893377"}], "853 WOODLANDS ST 83": [{"SEARCHVAL": "853 WOODLANDS STREET 83 SINGAPORE 730853", "BLK_NO": "853", "ROAD_NAME": "WOODLANDS STREET 83", "BUILDING": "NIL", "ADDRESS": "853 WOODLANDS STREET 83 SINGAPORE 730853", "POSTAL": "730853", "X": "23524.4146946725", "Y": "46789.7520961128", "LATITUDE": "1.43942402460765", "LONGITUDE": "103.793101108811"}, {"SEARCHVAL": "PCF SPARKLETOTS PRESCHOOL @ WOODLANDS 853 (CC)", "BLK_NO": "853", "ROAD_NAME": "WOODLANDS STREET 83", "BUILDING": "PCF SPARKLETOTS PRESCHOOL @ WOODLANDS 853 (CC)", "ADDRESS": "853 WOODLANDS STREET 83 PCF SPARKLETOTS PRESCHOOL @ WOODLANDS 853 (CC) SINGAPORE 730853", "POSTAL": "730853", "X": "23524.0887992913", "Y": "46790.9257069137", "LATITUDE": "1.43943463826363", "LONGITUDE": "103.79309818014"}], "817C KEAT HONG LINK": [{"SEARCHVAL": "KEAT HONG MIRAGE", "BLK_NO": "817C", "ROAD_NAME": "KEAT HONG LINK", "BUILDING": "KEAT HONG MIRAGE", "ADDRESS": "817C KEAT HONG LINK KEAT HONG MIRAGE SINGAPORE 683817", "POSTAL": "683817", "X": "18615.2251720671", "Y": "39949.9888484627", "LATITUDE": "1.37756652387037", "LONGITUDE": "103.748989532974"}], "620 JURONG WEST ST 65": [{"SEARCHVAL": "620 JURONG WEST STREET 65 SINGAPORE 640620", "BLK_NO": "620", "ROAD_NAME": "JURONG WEST STREET 65", "BUILDING": "NIL", "ADDRESS": "620 JURONG WEST STREET 65 SINGAPORE 640620", "POSTAL": "640620", "X": "13105.3927258225", "Y": "35957.1719462406", "LATITUDE": "1.34145472885006", "LONGITUDE": "103.699481732903"}], "289G BT BATOK ST 25": [{"SEARCHVAL": "NATURE VIEW", "BLK_NO": "289G", "ROAD_NAME": "BUKIT BATOK STREET 25", "BUILDING": "NATURE VIEW", "ADDRESS": "289G BUKIT BATOK STREET 25 NATURE VIEW SINGAPORE 656289", "POSTAL": "656289", "X": "19705.1276541883", "Y": "36353.6201203559", "LATITUDE": "1.34504260344064", "LONGITUDE": "103.758784094586"}, {"SEARCHVAL": "PCF SPARKLETOTS PRESCHOOL @ BUKIT BATOK EAST BLK 289G (KN)", "BLK_NO": "289G", "ROAD_NAME": "BUKIT BATOK STREET 25", "BUILDING": "PCF SPARKLETOTS PRESCHOOL @ BUKIT BATOK EAST BLK 289G (KN)", "ADDRESS": "289G BUKIT BATOK STREET 25 PCF SPARKLETOTS PRESCHOOL @ BUKIT BATOK EAST BLK 289G (KN) SINGAPORE 656289", "POSTAL": "656289", "X": "19705.1278055282", "Y": "36353.6190004405", "LATITUDE": "1.34504259331257", "LONGITUDE": "103.758784095946"}], "318 JURONG EAST ST 31": [{"SEARCHVAL": "318 JURONG EAST STREET 31 SINGAPORE 600318", "BLK_NO": "318", "ROAD_NAME": "JURONG EAST STREET 31", "BUILDING": "NIL", "ADDRESS": "318 JURONG EAST STREET 31 SINGAPORE 600318", "POSTAL": "600318", "X": "16564.1803618977", "Y": "36626.3708844241", "LATITUDE": "1.34750822865247", "LONGITUDE": "103.730560691538"}], "421 SERANGOON CTRL": [{"SEARCHVAL": "421 SERANGOON CENTRAL SINGAPORE 550421", "BLK_NO": "421", "ROAD_NAME": "SERANGOON CENTRAL", "BUILDING": "NIL", "ADDRESS": "421 SERANGOON CENTRAL SINGAPORE 550421", "POSTAL": "550421", "X": "32663.6777995136", "Y": "36774.0373594351", "LATITUDE": "1.348845490498", "LONGITUDE": "103.875224639926"}], "281 TOH GUAN RD": [{"SEARCHVAL": "TOH GUAN VIEW", "BLK_NO": "281", "ROAD_NAME": "TOH GUAN ROAD", "BUILDING": "TOH GUAN VIEW", "ADDRESS": "281 TOH GUAN ROAD TOH GUAN VIEW SINGAPORE 600281", "POSTAL": "600281", "X": "18328.5542530902", "Y": "35784.5191296004", "LATITUDE": "1.33989545035108", "LONGITUDE": "103.746414934077"}], "267 YISHUN ST 22": [{"SEARCHVAL": "267 YISHUN STREET 22 SINGAPORE 760267", "BLK_NO": "267", "ROAD_NAME": "YISHUN STREET 22", "BUILDING": "NIL", "ADDRESS": "267 YISHUN STREET 22 SINGAPORE 760267", "POSTAL": "760267", "X": "28669.4594291104", "Y": "46522.6460083276", "LATITUDE": "1.43700876313102", "LONGITUDE": "103.839334314039"}], "661A EDGEDALE PLAINS": [{"SEARCHVAL": "WATERWAY SUNDEW", "BLK_NO": "661A", "ROAD_NAME": "EDGEDALE PLAINS", "BUILDING": "WATERWAY SUNDEW", "ADDRESS": "661A EDGEDALE PLAINS WATERWAY SUNDEW SINGAPORE 821661", "POSTAL": "821661", "X": "37321.5856389003", "Y": "42765.6742387004", "LATITUDE": "1.40303056639258", "LONGITUDE": "103.917080721325"}], "565 HOUGANG ST 51": [{"SEARCHVAL": "565 HOUGANG STREET 51 SINGAPORE 530565", "BLK_NO": "565", "ROAD_NAME": "HOUGANG STREET 51", "BUILDING": "NIL", "ADDRESS": "565 HOUGANG STREET 51 SINGAPORE 530565", "POSTAL": "530565", "X": "34080.1498211203", "Y": "40276.2774405237", "LATITUDE": "1.38051823194681", "LONGITUDE": "103.887953237737"}, {"SEARCHVAL": "IYAD-PERDAUS NURTURE CARE", "BLK_NO": "565", "ROAD_NAME": "HOUGANG STREET 51", "BUILDING": "IYAD-PERDAUS NURTURE CARE", "ADDRESS": "565 HOUGANG STREET 51 IYAD-PERDAUS NURTURE CARE SINGAPORE 530565", "POSTAL": "530565", "X": "34080.1500935322", "Y": "40276.2771983799", "LATITUDE": "1.38051822975687", "LONGITUDE": "103.887953240185"}], "360A ADMIRALTY DR": [{"SEARCHVAL": "SUN BLISS", "BLK_NO": "360A", "ROAD_NAME": "ADMIRALTY DRIVE", "BUILDING": "SUN BLISS", "ADDRESS": "360A ADMIRALTY DRIVE SUN BLISS SINGAPORE 751360", "POSTAL": "751360", "X": "26055.8547210759", "Y": "47871.0642823111", "LATITUDE": "1.449203308783", "LONGITUDE": "103.815848473794"}], "316B ANCHORVALE LINK": [{"SEARCHVAL": "316B ANCHORVALE LINK SINGAPORE 542316", "BLK_NO": "316B", "ROAD_NAME": "ANCHORVALE LINK", "BUILDING": "NIL", "ADDRESS": "316B ANCHORVALE LINK SINGAPORE 542316", "POSTAL": "542316", "X": "34176.6629496291", "Y": "41639.7959575634", "LATITUDE": "1.39284937868558", "LONGITUDE": "103.888820766704"}], "427 CHOA CHU KANG AVE 4": [{"SEARCHVAL": "ICHIBAN MONTESSORI CHILDCARE CENTRE (CCK) PTE LTD", "BLK_NO": "427", "ROAD_NAME": "CHOA CHU KANG AVENUE 4", "BUILDING": "ICHIBAN MONTESSORI CHILDCARE CENTRE (CCK) PTE LTD", "ADDRESS": "427 CHOA CHU KANG AVENUE 4 ICHIBAN MONTESSORI CHILDCARE CENTRE (CCK) PTE LTD SINGAPORE 680427", "POSTAL": "680427", "X": "17588.4992060121", "Y": "40316.8779150378", "LATITUDE": "1.38088418626698", "LONGITUDE": "103.73976352968"}, {"SEARCHVAL": "KEAT HONG LAUREL", "BLK_NO": "427", "ROAD_NAME": "CHOA CHU KANG AVENUE 4", "BUILDING": "KEAT HONG LAUREL", "ADDRESS": "427 CHOA CHU KANG AVENUE 4 KEAT HONG LAUREL SINGAPORE 680427", "POSTAL": "680427", "X": "17588.4990546722", "Y": "40316.8788230773", "LATITUDE": "1.38088419447891", "LONGITUDE": "103.73976352832"}], "382 TAMPINES ST 32": [{"SEARCHVAL": "382 TAMPINES STREET 32 SINGAPORE 520382", "BLK_NO": "382", "ROAD_NAME": "TAMPINES STREET 32", "BUILDING": "NIL", "ADDRESS": "382 TAMPINES STREET 32 SINGAPORE 520382", "POSTAL": "520382", "X": "41959.328554051", "Y": "37355.1838575266", "LATITUDE": "1.35409827072203", "LONGITUDE": "103.958752054019"}], "604 ELIAS RD": [{"SEARCHVAL": "ELIAS VIEW", "BLK_NO": "604", "ROAD_NAME": "ELIAS ROAD", "BUILDING": "ELIAS VIEW", "ADDRESS": "604 ELIAS ROAD ELIAS VIEW SINGAPORE 510604", "POSTAL": "510604", "X": "40235.6551427916", "Y": "39804.0079974663", "LATITUDE": "1.37624527808676", "LONGITUDE": "103.943264774803"}], "154 BISHAN ST 13": [{"SEARCHVAL": "154 BISHAN STREET 13 SINGAPORE 570154", "BLK_NO": "154", "ROAD_NAME": "BISHAN STREET 13", "BUILDING": "NIL", "ADDRESS": "154 BISHAN STREET 13 SINGAPORE 570154", "POSTAL": "570154", "X": "30416.5944928564", "Y": "36528.4857687503", "LATITUDE": "1.34662507482215", "LONGITUDE": "103.855033173199"}], "660B JURONG WEST ST 64": [{"SEARCHVAL": "660B JURONG WEST STREET 64 SINGAPORE 642660", "BLK_NO": "660B", "ROAD_NAME": "JURONG WEST STREET 64", "BUILDING": "NIL", "ADDRESS": "660B JURONG WEST STREET 64 SINGAPORE 642660", "POSTAL": "642660", "X": "13627.9393480578", "Y": "35376.7200075723", "LATITUDE": "1.33620559481206", "LONGITUDE": "103.704177389573"}], "333 UBI AVE 1": [{"SEARCHVAL": "KAMPONG UBI VIEW", "BLK_NO": "333", "ROAD_NAME": "UBI AVENUE 1", "BUILDING": "KAMPONG UBI VIEW", "ADDRESS": "333 UBI AVENUE 1 KAMPONG UBI VIEW SINGAPORE 400333", "POSTAL": "400333", "X": "35752.9736250937", "Y": "34325.0449295063", "LATITUDE": "1.32669704800522", "LONGITUDE": "103.90298325894"}], "206 PASIR RIS ST 21": [{"SEARCHVAL": "206 PASIR RIS STREET 21 SINGAPORE 510206", "BLK_NO": "206", "ROAD_NAME": "PASIR RIS STREET 21", "BUILDING": "NIL", "ADDRESS": "206 PASIR RIS STREET 21 SINGAPORE 510206", "POSTAL": "510206", "X": "42398.4492580416", "Y": "38702.3857823163", "LATITUDE": "1.36628164486583", "LONGITUDE": "103.962698475917"}], "185 BOON LAY AVE": [{"SEARCHVAL": "BOON LAY VISTA", "BLK_NO": "185", "ROAD_NAME": "BOON LAY AVENUE", "BUILDING": "BOON LAY VISTA", "ADDRESS": "185 BOON LAY AVENUE BOON LAY VISTA SINGAPORE 640185", "POSTAL": "640185", "X": "14362.4769957243", "Y": "36504.5252393559", "LATITUDE": "1.34640538174578", "LONGITUDE": "103.71077711286"}], "677A JURONG WEST ST 64": [{"SEARCHVAL": "EDELWEISS@JURONG", "BLK_NO": "677A", "ROAD_NAME": "JURONG WEST STREET 64", "BUILDING": "EDELWEISS@JURONG", "ADDRESS": "677A JURONG WEST STREET 64 EDELWEISS@JURONG SINGAPORE 641677", "POSTAL": "641677", "X": "13723.7738683717", "Y": "36418.8727779612", "LATITUDE": "1.34563047616405", "LONGITUDE": "103.705038025438"}], "674B YISHUN AVE 4": [{"SEARCHVAL": "FERN GROVE @ YISHUN", "BLK_NO": "674B", "ROAD_NAME": "YISHUN AVENUE 4", "BUILDING": "FERN GROVE @ YISHUN", "ADDRESS": "674B YISHUN AVENUE 4 FERN GROVE @ YISHUN SINGAPORE 762674", "POSTAL": "762674", "X": "29090.4286048738", "Y": "44760.5010211878", "LATITUDE": "1.42107254833692", "LONGITUDE": "103.843117058752"}], "321 TAMPINES ST 33": [{"SEARCHVAL": "321 TAMPINES STREET 33 SINGAPORE 520321", "BLK_NO": "321", "ROAD_NAME": "TAMPINES STREET 33", "BUILDING": "NIL", "ADDRESS": "321 TAMPINES STREET 33 SINGAPORE 520321", "POSTAL": "520321", "X": "41821.7539999038", "Y": "36979.2915186584", "LATITUDE": "1.35069890623764", "LONGITUDE": "103.957515688038"}], "258A PUNGGOL FIELD": [{"SEARCHVAL": "PUNGGOL TOPAZ", "BLK_NO": "258A", "ROAD_NAME": "PUNGGOL FIELD", "BUILDING": "PUNGGOL TOPAZ", "ADDRESS": "258A PUNGGOL FIELD PUNGGOL TOPAZ SINGAPORE 821258", "POSTAL": "821258", "X": "34974.2632149383", "Y": "42850.6045362707", "LATITUDE": "1.40379930905886", "LONGITUDE": "103.895988121768"}], "896 TAMPINES ST 81": [{"SEARCHVAL": "SUNFLOWER KIDDY STAR PRESCHOOL PTE LTD", "BLK_NO": "896", "ROAD_NAME": "TAMPINES STREET 81", "BUILDING": "SUNFLOWER KIDDY STAR PRESCHOOL PTE LTD", "ADDRESS": "896 TAMPINES STREET 81 SUNFLOWER KIDDY STAR PRESCHOOL PTE LTD SINGAPORE 520896", "POSTAL": "520896", "X": "39032.4230944291", "Y": "36714.2662034128", "LATITUDE": "1.34830327385557", "LONGITUDE": "103.932451735683"}, {"SEARCHVAL": "TAMPINES GROVE", "BLK_NO": "896", "ROAD_NAME": "TAMPINES STREET 81", "BUILDING": "TAMPINES GROVE", "ADDRESS": "896 TAMPINES STREET 81 TAMPINES GROVE SINGAPORE 520896", "POSTAL": "520896", "X": "39032.4226101413", "Y": "36714.2666271646", "LATITUDE": "1.34830327768801", "LONGITUDE": "103.932451731332"}], "41 KIM CHENG ST": [{"SEARCHVAL": "41 KIM CHENG STREET SINGAPORE 160041", "BLK_NO": "41", "ROAD_NAME": "KIM CHENG STREET", "BUILDING": "NIL", "ADDRESS": "41 KIM CHENG STREET SINGAPORE 160041", "POSTAL": "160041", "X": "27807.7256648932", "Y": "29680.0897289291", "LATITUDE": "1.2846906958963", "LONGITUDE": "103.831590918207"}], "716 CLEMENTI WEST ST 2": [{"SEARCHVAL": "716 CLEMENTI WEST STREET 2 SINGAPORE 120716", "BLK_NO": "716", "ROAD_NAME": "CLEMENTI WEST STREET 2", "BUILDING": "NIL", "ADDRESS": "716 CLEMENTI WEST STREET 2 SINGAPORE 120716", "POSTAL": "120716", "X": "20152.4499829225", "Y": "31639.4568117913", "LATITUDE": "1.30240953060904", "LONGITUDE": "103.762804760851"}, {"SEARCHVAL": "VISTA 18", "BLK_NO": "716", "ROAD_NAME": "CLEMENTI WEST STREET 2", "BUILDING": "VISTA 18", "ADDRESS": "716 CLEMENTI WEST STREET 2 VISTA 18 SINGAPORE 120716", "POSTAL": "120716", "X": "20182.3427344449", "Y": "31585.0914268568", "LATITUDE": "1.3019178771328", "LONGITUDE": "103.763073374343"}], "383 TAMPINES ST 32": [{"SEARCHVAL": "383 TAMPINES STREET 32 SINGAPORE 520383", "BLK_NO": "383", "ROAD_NAME": "TAMPINES STREET 32", "BUILDING": "NIL", "ADDRESS": "383 TAMPINES STREET 32 SINGAPORE 520383", "POSTAL": "520383", "X": "41905.3387947949", "Y": "37355.1807701923", "LATITUDE": "1.35409826800948", "LONGITUDE": "103.958266922353"}], "629 BEDOK RESERVOIR RD": [{"SEARCHVAL": "EUNOS HEIGHTS", "BLK_NO": "629", "ROAD_NAME": "BEDOK RESERVOIR ROAD", "BUILDING": "EUNOS HEIGHTS", "ADDRESS": "629 BEDOK RESERVOIR ROAD EUNOS HEIGHTS SINGAPORE 470629", "POSTAL": "470629", "X": "37034.7724906681", "Y": "35176.7363820858", "LATITUDE": "1.33439908281466", "LONGITUDE": "103.914501162624"}, {"SEARCHVAL": "NEIGHBOURHOOD POLICE POST EUNOS", "BLK_NO": "629", "ROAD_NAME": "BEDOK RESERVOIR ROAD", "BUILDING": "NEIGHBOURHOOD POLICE POST EUNOS", "ADDRESS": "629 BEDOK RESERVOIR ROAD NEIGHBOURHOOD POLICE POST EUNOS SINGAPORE 470629", "POSTAL": "470629", "X": "37077.0131569523", "Y": "35145.387498403", "LATITUDE": "1.33411556227986", "LONGITUDE": "103.914880709508"}, {"SEARCHVAL": "PCF SPARKLETOTS PRESCHOOL @ EUNOS 629 (CC)", "BLK_NO": "629", "ROAD_NAME": "BEDOK RESERVOIR ROAD", "BUILDING": "PCF SPARKLETOTS PRESCHOOL @ EUNOS 629 (CC)", "ADDRESS": "629 BEDOK RESERVOIR ROAD PCF SPARKLETOTS PRESCHOOL @ EUNOS 629 (CC) SINGAPORE 470629", "POSTAL": "470629", "X": "37034.7727933479", "Y": "35176.7354135104", "LATITUDE": "1.33439907405514", "LONGITUDE": "103.914501165343"}], "104B DEPOT RD": [{"SEARCHVAL": "DEPOT HEIGHTS", "BLK_NO": "104B", "ROAD_NAME": "DEPOT ROAD", "BUILDING": "DEPOT HEIGHTS", "ADDRESS": "104B DEPOT ROAD DEPOT HEIGHTS SINGAPORE 102104", "POSTAL": "102104", "X": "25638.6347496519", "Y": "29215.7674174067", "LATITUDE": "1.28049143987378", "LONGITUDE": "103.812100811742"}], "103 POTONG PASIR AVE 1": [{"SEARCHVAL": "103 POTONG PASIR AVENUE 1 SINGAPORE 350103", "BLK_NO": "103", "ROAD_NAME": "POTONG PASIR AVENUE 1", "BUILDING": "NIL", "ADDRESS": "103 POTONG PASIR AVENUE 1 SINGAPORE 350103", "POSTAL": "350103", "X": "32029.2525371043", "Y": "35145.02618948", "LATITUDE": "1.33411338676706", "LONGITUDE": "103.86952371664"}], "406 CHOA CHU KANG AVE 3": [{"SEARCHVAL": "KEAT HONG LAUREL", "BLK_NO": "406", "ROAD_NAME": "CHOA CHU KANG AVENUE 3", "BUILDING": "KEAT HONG LAUREL", "ADDRESS": "406 CHOA CHU KANG AVENUE 3 KEAT HONG LAUREL SINGAPORE 680406", "POSTAL": "680406", "X": "17638.1377912685", "Y": "40260.4504329097", "LATITUDE": "1.38037389462046", "LONGITUDE": "103.740209588608"}], "494J TAMPINES ST 45": [{"SEARCHVAL": "TAMPINES GREENEDGE", "BLK_NO": "494J", "ROAD_NAME": "TAMPINES STREET 45", "BUILDING": "TAMPINES GREENEDGE", "ADDRESS": "494J TAMPINES STREET 45 TAMPINES GREENEDGE SINGAPORE 529494", "POSTAL": "529494", "X": "41499.5852436423", "Y": "38444.0511443373", "LATITUDE": "1.36394578780556", "LONGITUDE": "103.954621464542"}], "220 CHOA CHU KANG CTRL": [{"SEARCHVAL": "220 CHOA CHU KANG CENTRAL SINGAPORE 680220", "BLK_NO": "220", "ROAD_NAME": "CHOA CHU KANG CENTRAL", "BUILDING": "NIL", "ADDRESS": "220 CHOA CHU KANG CENTRAL SINGAPORE 680220", "POSTAL": "680220", "X": "18235.9140341701", "Y": "40432.8270541988", "LATITUDE": "1.38193301079554", "LONGITUDE": "103.745580988412"}, {"SEARCHVAL": "HDB PUBLIC SHELTERS", "BLK_NO": "220", "ROAD_NAME": "CHOA CHU KANG CENTRAL", "BUILDING": "HDB PUBLIC SHELTERS", "ADDRESS": "220 CHOA CHU KANG CENTRAL HDB PUBLIC SHELTERS SINGAPORE 680220", "POSTAL": "680220", "X": "18236.1427087868", "Y": "40432.6018604003", "LATITUDE": "1.38193097430224", "LONGITUDE": "103.745583043297"}], "308A ANG MO KIO AVE 1": [{"SEARCHVAL": "TECK GHEE VISTA", "BLK_NO": "308A", "ROAD_NAME": "ANG MO KIO AVENUE 1", "BUILDING": "TECK GHEE VISTA", "ADDRESS": "308A ANG MO KIO AVENUE 1 TECK GHEE VISTA SINGAPORE 561308", "POSTAL": "561308", "X": "29198.1455183588", "Y": "38613.7381223254", "LATITUDE": "1.36548342757106", "LONGITUDE": "103.844084739929"}], "225 YISHUN ST 21": [{"SEARCHVAL": "YISHUN GARDENS", "BLK_NO": "225", "ROAD_NAME": "YISHUN STREET 21", "BUILDING": "YISHUN GARDENS", "ADDRESS": "225 YISHUN STREET 21 YISHUN GARDENS SINGAPORE 760225", "POSTAL": "760225", "X": "28277.7554890327", "Y": "46281.8690407332", "LATITUDE": "1.43483127003663", "LONGITUDE": "103.835814475757"}], "741 WOODLANDS CIRCLE": [{"SEARCHVAL": "741 WOODLANDS CIRCLE SINGAPORE 730741", "BLK_NO": "741", "ROAD_NAME": "WOODLANDS CIRCLE", "BUILDING": "NIL", "ADDRESS": "741 WOODLANDS CIRCLE SINGAPORE 730741", "POSTAL": "730741", "X": "23827.8787450353", "Y": "47341.2820682991", "LATITUDE": "1.44441190731037", "LONGITUDE": "103.795827945234"}], "804 WOODLANDS ST 81": [{"SEARCHVAL": "804 WOODLANDS STREET 81 SINGAPORE 730804", "BLK_NO": "804", "ROAD_NAME": "WOODLANDS STREET 81", "BUILDING": "NIL", "ADDRESS": "804 WOODLANDS STREET 81 SINGAPORE 730804", "POSTAL": "730804", "X": "22931.3812934794", "Y": "46850.1619065907", "LATITUDE": "1.43997024799197", "LONGITUDE": "103.787772119437"}], "304 CLEMENTI AVE 4": [{"SEARCHVAL": "CLEMENTI MEADOWS", "BLK_NO": "304", "ROAD_NAME": "CLEMENTI AVENUE 4", "BUILDING": "CLEMENTI MEADOWS", "ADDRESS": "304 CLEMENTI AVENUE 4 CLEMENTI MEADOWS SINGAPORE 120304", "POSTAL": "120304", "X": "20381.14796679", "Y": "33686.3078112081", "LATITUDE": "1.3209205726035", "LONGITUDE": "103.764859212465"}, {"SEARCHVAL": "MINDS - CLEMENTI TRAINING & DEVELOPMENT CENTRE", "BLK_NO": "304", "ROAD_NAME": "CLEMENTI AVENUE 4", "BUILDING": "MINDS - CLEMENTI TRAINING & DEVELOPMENT CENTRE", "ADDRESS": "304 CLEMENTI AVENUE 4 MINDS - CLEMENTI TRAINING & DEVELOPMENT CENTRE SINGAPORE 120304", "POSTAL": "120304", "X": "20395.3091759197", "Y": "33687.8152173329", "LATITUDE": "1.32093420856687", "LONGITUDE": "103.764986457895"}], "808D CHOA CHU KANG AVE 1": [{"SEARCHVAL": "KEAT HONG AXIS", "BLK_NO": "808D", "ROAD_NAME": "CHOA CHU KANG AVENUE 1", "BUILDING": "KEAT HONG AXIS", "ADDRESS": "808D CHOA CHU KANG AVENUE 1 KEAT HONG AXIS SINGAPORE 684808", "POSTAL": "684808", "X": "18216.7472875007", "Y": "39653.4331627041", "LATITUDE": "1.37488445323866", "LONGITUDE": "103.745409019573"}], "285 BISHAN ST 22": [{"SEARCHVAL": "285 BISHAN STREET 22 SINGAPORE 570285", "BLK_NO": "285", "ROAD_NAME": "BISHAN STREET 22", "BUILDING": "NIL", "ADDRESS": "285 BISHAN STREET 22 SINGAPORE 570285", "POSTAL": "570285", "X": "29172.4711551908", "Y": "37879.2369173113", "LATITUDE": "1.35884086169807", "LONGITUDE": "103.843854009321"}], "1C CANTONMENT RD": [{"SEARCHVAL": "THE PINNACLE@DUXTON", "BLK_NO": "1C", "ROAD_NAME": "CANTONMENT ROAD", "BUILDING": "THE PINNACLE@DUXTON", "ADDRESS": "1C CANTONMENT ROAD THE PINNACLE@DUXTON SINGAPORE 085301", "POSTAL": "085301", "X": "28929.0768545093", "Y": "28879.3522476424", "LATITUDE": "1.27744909387079", "LONGITUDE": "103.841666679651"}], "359A ADMIRALTY DR": [{"SEARCHVAL": "SUN BLISS", "BLK_NO": "359A", "ROAD_NAME": "ADMIRALTY DRIVE", "BUILDING": "SUN BLISS", "ADDRESS": "359A ADMIRALTY DRIVE SUN BLISS SINGAPORE 751359", "POSTAL": "751359", "X": "26022.0681145191", "Y": "47921.9144344199", "LATITUDE": "1.44966317668208", "LONGITUDE": "103.815544863508"}], "225 BT BATOK CTRL": [{"SEARCHVAL": "225 BUKIT BATOK CENTRAL SINGAPORE 650225", "BLK_NO": "225", "ROAD_NAME": "BUKIT BATOK CENTRAL", "BUILDING": "NIL", "ADDRESS": "225 BUKIT BATOK CENTRAL SINGAPORE 650225", "POSTAL": "650225", "X": "19017.7797000203", "Y": "36735.509545641", "LATITUDE": "1.34849607451431", "LONGITUDE": "103.752607744553"}, {"SEARCHVAL": "YMCA CHILD DEVELOPMENT CENTRE-BUKIT BATOK", "BLK_NO": "225", "ROAD_NAME": "BUKIT BATOK CENTRAL", "BUILDING": "YMCA CHILD DEVELOPMENT CENTRE-BUKIT BATOK", "ADDRESS": "225 BUKIT BATOK CENTRAL YMCA CHILD DEVELOPMENT CENTRE-BUKIT BATOK SINGAPORE 650225", "POSTAL": "650225", "X": "19016.6840898134", "Y": "36734.4126944467", "LATITUDE": "1.34848615466343", "LONGITUDE": "103.752597900148"}], "504 JELAPANG RD": [{"SEARCHVAL": "PANSHAN VIEW", "BLK_NO": "504", "ROAD_NAME": "JELAPANG ROAD", "BUILDING": "PANSHAN VIEW", "ADDRESS": "504 JELAPANG ROAD PANSHAN VIEW SINGAPORE 670504", "POSTAL": "670504", "X": "20612.1168666715", "Y": "40742.2745703869", "LATITUDE": "1.3847322385941", "LONGITUDE": "103.766932853057"}], "530 BEDOK NTH ST 3": [{"SEARCHVAL": "530 BEDOK NORTH STREET 3 SINGAPORE 460530", "BLK_NO": "530", "ROAD_NAME": "BEDOK NORTH STREET 3", "BUILDING": "NIL", "ADDRESS": "530 BEDOK NORTH STREET 3 SINGAPORE 460530", "POSTAL": "460530", "X": "38428.0248825857", "Y": "35100.9576699268", "LATITUDE": "1.33371332018833", "LONGITUDE": "103.927020293564"}], "19 EUNOS CRES": [{"SEARCHVAL": "EUNOS CRESCENT VIEW", "BLK_NO": "19", "ROAD_NAME": "EUNOS CRESCENT", "BUILDING": "EUNOS CRESCENT VIEW", "ADDRESS": "19 EUNOS CRESCENT EUNOS CRESCENT VIEW SINGAPORE 400019", "POSTAL": "400019", "X": "35777.7098321067", "Y": "34057.3206181545", "LATITUDE": "1.32427583956643", "LONGITUDE": "103.903205459225"}], "26 TOA PAYOH EAST": [{"SEARCHVAL": "26 TOA PAYOH EAST SINGAPORE 310026", "BLK_NO": "26", "ROAD_NAME": "TOA PAYOH EAST", "BUILDING": "NIL", "ADDRESS": "26 TOA PAYOH EAST SINGAPORE 310026", "POSTAL": "310026", "X": "30609.1321338126", "Y": "35012.8701795097", "LATITUDE": "1.33291837032644", "LONGITUDE": "103.856763112528"}], "481 SEMBAWANG DR": [{"SEARCHVAL": "481 SEMBAWANG DRIVE SINGAPORE 750481", "BLK_NO": "481", "ROAD_NAME": "SEMBAWANG DRIVE", "BUILDING": "NIL", "ADDRESS": "481 SEMBAWANG DRIVE SINGAPORE 750481", "POSTAL": "750481", "X": "25971.9103122698", "Y": "48288.2616132833", "LATITUDE": "1.45297628362912", "LONGITUDE": "103.815094118491"}], "235 YISHUN ST 21": [{"SEARCHVAL": "235 YISHUN STREET 21 SINGAPORE 760235", "BLK_NO": "235", "ROAD_NAME": "YISHUN STREET 21", "BUILDING": "NIL", "ADDRESS": "235 YISHUN STREET 21 SINGAPORE 760235", "POSTAL": "760235", "X": "28581.5096277511", "Y": "46215.2617092486", "LATITUDE": "1.43422889283755", "LONGITUDE": "103.838543994351"}, {"SEARCHVAL": "OUR LADY STAR OF THE SEA CHILD CARE CENTRE", "BLK_NO": "235", "ROAD_NAME": "YISHUN STREET 21", "BUILDING": "OUR LADY STAR OF THE SEA CHILD CARE CENTRE", "ADDRESS": "235 YISHUN STREET 21 OUR LADY STAR OF THE SEA CHILD CARE CENTRE SINGAPORE 760235", "POSTAL": "760235", "X": "28589.3094147434", "Y": "46228.4999870192", "LATITUDE": "1.43434861486562", "LONGITUDE": "103.838614083114"}], "662 YISHUN AVE 4": [{"SEARCHVAL": "662 YISHUN AVENUE 4 SINGAPORE 760662", "BLK_NO": "662", "ROAD_NAME": "YISHUN AVENUE 4", "BUILDING": "NIL", "ADDRESS": "662 YISHUN AVENUE 4 SINGAPORE 760662", "POSTAL": "760662", "X": "28820.34684134", "Y": "44701.538716495", "LATITUDE": "1.42053932360735", "LONGITUDE": "103.840690129891"}, {"SEARCHVAL": "PRAISELAND CHILD CARE AND LEARNING CENTRE", "BLK_NO": "662", "ROAD_NAME": "YISHUN AVENUE 4", "BUILDING": "PRAISELAND CHILD CARE AND LEARNING CENTRE", "ADDRESS": "662 YISHUN AVENUE 4 PRAISELAND CHILD CARE AND LEARNING CENTRE SINGAPORE 760662", "POSTAL": "760662", "X": "28802.5173039241", "Y": "44694.1759991869", "LATITUDE": "1.42047273835843", "LONGITUDE": "103.840529915317"}], "623 JURONG WEST ST 61": [{"SEARCHVAL": "623 JURONG WEST STREET 61 SINGAPORE 640623", "BLK_NO": "623", "ROAD_NAME": "JURONG WEST STREET 61", "BUILDING": "NIL", "ADDRESS": "623 JURONG WEST STREET 61 SINGAPORE 640623", "POSTAL": "640623", "X": "12968.0075584492", "Y": "35832.5446734689", "LATITUDE": "1.34032757892166", "LONGITUDE": "103.698247310085"}], "132 YISHUN ST 11": [{"SEARCHVAL": "132 YISHUN STREET 11 SINGAPORE 760132", "BLK_NO": "132", "ROAD_NAME": "YISHUN STREET 11", "BUILDING": "NIL", "ADDRESS": "132 YISHUN STREET 11 SINGAPORE 760132", "POSTAL": "760132", "X": "27766.8999057757", "Y": "46054.8800477628", "LATITUDE": "1.43277846415077", "LONGITUDE": "103.831223954136"}], "830A JURONG WEST ST 81": [{"SEARCHVAL": "830A JURONG WEST STREET 81 SINGAPORE 641830", "BLK_NO": "830A", "ROAD_NAME": "JURONG WEST STREET 81", "BUILDING": "NIL", "ADDRESS": "830A JURONG WEST STREET 81 SINGAPORE 641830", "POSTAL": "641830", "X": "12519.1772787664", "Y": "36377.7396474686", "LATITUDE": "1.34525788684192", "LONGITUDE": "103.694214035887"}], "188C BEDOK NTH ST 4": [{"SEARCHVAL": "FENGSHAN GREENVILLE", "BLK_NO": "188C", "ROAD_NAME": "BEDOK NORTH STREET 4", "BUILDING": "FENGSHAN GREENVILLE", "ADDRESS": "188C BEDOK NORTH STREET 4 FENGSHAN GREENVILLE SINGAPORE 463188", "POSTAL": "463188", "X": "39960.0088525964", "Y": "34889.837333316", "LATITUDE": "1.33180346002147", "LONGITUDE": "103.940785939953"}], "724 YISHUN ST 71": [{"SEARCHVAL": "KHATIB SPRING", "BLK_NO": "724", "ROAD_NAME": "YISHUN STREET 71", "BUILDING": "KHATIB SPRING", "ADDRESS": "724 YISHUN STREET 71 KHATIB SPRING SINGAPORE 760724", "POSTAL": "760724", "X": "27621.3364502741", "Y": "45357.8548138402", "LATITUDE": "1.42647481851247", "LONGITUDE": "103.82991593847"}], "124C RIVERVALE DR": [{"SEARCHVAL": "RIVERVALE PLAINS", "BLK_NO": "124C", "ROAD_NAME": "RIVERVALE DRIVE", "BUILDING": "RIVERVALE PLAINS", "ADDRESS": "124C RIVERVALE DRIVE RIVERVALE PLAINS SINGAPORE 543124", "POSTAL": "543124", "X": "35723.5679762326", "Y": "41114.2770798635", "LATITUDE": "1.38809640740115", "LONGITUDE": "103.902720783456"}], "469 SEGAR RD": [{"SEARCHVAL": "SEGAR GARDENS", "BLK_NO": "469", "ROAD_NAME": "SEGAR ROAD", "BUILDING": "SEGAR GARDENS", "ADDRESS": "469 SEGAR ROAD SEGAR GARDENS SINGAPORE 670469", "POSTAL": "670469", "X": "21319.3591795694", "Y": "41091.3430286013", "LATITUDE": "1.38788925743947", "LONGITUDE": "103.77328787892"}], "254 ANG MO KIO AVE 4": [{"SEARCHVAL": "KEBUN BARU VIEW", "BLK_NO": "254", "ROAD_NAME": "ANG MO KIO AVENUE 4", "BUILDING": "KEBUN BARU VIEW", "ADDRESS": "254 ANG MO KIO AVENUE 4 KEBUN BARU VIEW SINGAPORE 560254", "POSTAL": "560254", "X": "28152.3690952277", "Y": "39135.6504789609", "LATITUDE": "1.37020344042146", "LONGITUDE": "103.834687722549"}], "205C COMPASSVALE LANE": [{"SEARCHVAL": "COMPASSVALE PLACE", "BLK_NO": "205C", "ROAD_NAME": "COMPASSVALE LANE", "BUILDING": "COMPASSVALE PLACE", "ADDRESS": "205C COMPASSVALE LANE COMPASSVALE PLACE SINGAPORE 543205", "POSTAL": "543205", "X": "35031.7139970604", "Y": "40892.4831625465", "LATITUDE": "1.38609075927476", "LONGITUDE": "103.896503892256"}], "732 WOODLANDS CIRCLE": [{"SEARCHVAL": "732 WOODLANDS CIRCLE SINGAPORE 730732", "BLK_NO": "732", "ROAD_NAME": "WOODLANDS CIRCLE", "BUILDING": "NIL", "ADDRESS": "732 WOODLANDS CIRCLE SINGAPORE 730732", "POSTAL": "730732", "X": "24102.0601858906", "Y": "47223.5728156175", "LATITUDE": "1.44334742731535", "LONGITUDE": "103.798291752455"}], "625 ANG MO KIO AVE 9": [{"SEARCHVAL": "YIO CHU KANG HEIGHTS", "BLK_NO": "625", "ROAD_NAME": "ANG MO KIO AVENUE 9", "BUILDING": "YIO CHU KANG HEIGHTS", "ADDRESS": "625 ANG MO KIO AVENUE 9 YIO CHU KANG HEIGHTS SINGAPORE 560625", "POSTAL": "560625", "X": "28878.3857606538", "Y": "40462.0242171884", "LATITUDE": "1.38219867741921", "LONGITUDE": "103.841211533475"}], "678 HOUGANG AVE 8": [{"SEARCHVAL": "678 HOUGANG AVENUE 8 SINGAPORE 530678", "BLK_NO": "678", "ROAD_NAME": "HOUGANG AVENUE 8", "BUILDING": "NIL", "ADDRESS": "678 HOUGANG AVENUE 8 SINGAPORE 530678", "POSTAL": "530678", "X": "33666.5332834264", "Y": "39206.1826296262", "LATITUDE": "1.37084076394573", "LONGITUDE": "103.884236382077"}, {"SEARCHVAL": "RAFFLES STUDENT CARE CENTRE (XMA) LLP", "BLK_NO": "678", "ROAD_NAME": "HOUGANG AVENUE 8", "BUILDING": "RAFFLES STUDENT CARE CENTRE (XMA) LLP", "ADDRESS": "678 HOUGANG AVENUE 8 RAFFLES STUDENT CARE CENTRE (XMA) LLP SINGAPORE 530678", "POSTAL": "530678", "X": "33645.8957548924", "Y": "39210.678212177", "LATITUDE": "1.37088142433204", "LONGITUDE": "103.884050940213"}], "324C SENGKANG EAST WAY": [{"SEARCHVAL": "ANCHORVALE GROVE", "BLK_NO": "324C", "ROAD_NAME": "SENGKANG EAST WAY", "BUILDING": "ANCHORVALE GROVE", "ADDRESS": "324C SENGKANG EAST WAY ANCHORVALE GROVE SINGAPORE 543324", "POSTAL": "543324", "X": "34505.6019274155", "Y": "41606.0462476797", "LATITUDE": "1.39254408668838", "LONGITUDE": "103.891776534324"}], "403 TAMPINES ST 41": [{"SEARCHVAL": "SUN PLAZA GREEN", "BLK_NO": "403", "ROAD_NAME": "TAMPINES STREET 41", "BUILDING": "SUN PLAZA GREEN", "ADDRESS": "403 TAMPINES STREET 41 SUN PLAZA GREEN SINGAPORE 520403", "POSTAL": "520403", "X": "40419.7250126228", "Y": "37732.5400166232", "LATITUDE": "1.35751161946385", "LONGITUDE": "103.944917908671"}], "895C WOODLANDS DR 50": [{"SEARCHVAL": "895C WOODLANDS DRIVE 50 SINGAPORE 732895", "BLK_NO": "895C", "ROAD_NAME": "WOODLANDS DRIVE 50", "BUILDING": "NIL", "ADDRESS": "895C WOODLANDS DRIVE 50 SINGAPORE 732895", "POSTAL": "732895", "X": "23469.179892174", "Y": "46374.5423425585", "LATITUDE": "1.43566901015181", "LONGITUDE": "103.792604837224"}], "546 SERANGOON NTH AVE 3": [{"SEARCHVAL": "546 SERANGOON NORTH AVENUE 3 SINGAPORE 550546", "BLK_NO": "546", "ROAD_NAME": "SERANGOON NORTH AVENUE 3", "BUILDING": "NIL", "ADDRESS": "546 SERANGOON NORTH AVENUE 3 SINGAPORE 550546", "POSTAL": "550546", "X": "32098.5318051195", "Y": "39646.7363410387", "LATITUDE": "1.37482523313127", "LONGITUDE": "103.870146844732"}, {"SEARCHVAL": "HDB PUBLIC SHELTERS", "BLK_NO": "546", "ROAD_NAME": "SERANGOON NORTH AVENUE 3", "BUILDING": "HDB PUBLIC SHELTERS", "ADDRESS": "546 SERANGOON NORTH AVENUE 3 HDB PUBLIC SHELTERS SINGAPORE 550546", "POSTAL": "550546", "X": "32107.8192029754", "Y": "39616.2165276967", "LATITUDE": "1.37454922161147", "LONGITUDE": "103.870230294456"}], "331 ANG MO KIO AVE 1": [{"SEARCHVAL": "MY FIRST SKOOL", "BLK_NO": "331", "ROAD_NAME": "ANG MO KIO AVENUE 1", "BUILDING": "MY FIRST SKOOL", "ADDRESS": "331 ANG MO KIO AVENUE 1 MY FIRST SKOOL SINGAPORE 560331", "POSTAL": "560331", "X": "29941.7457938343", "Y": "38240.8809963278", "LATITUDE": "1.36211140145298", "LONGITUDE": "103.85076647513"}, {"SEARCHVAL": "TECK GHEE VIEW", "BLK_NO": "331", "ROAD_NAME": "ANG MO KIO AVENUE 1", "BUILDING": "TECK GHEE VIEW", "ADDRESS": "331 ANG MO KIO AVENUE 1 TECK GHEE VIEW SINGAPORE 560331", "POSTAL": "560331", "X": "29941.7456122264", "Y": "38240.8815714195", "LATITUDE": "1.36211140665392", "LONGITUDE": "103.850766473498"}], "18 LOR 7 TOA PAYOH": [{"SEARCHVAL": "KIM KEAT PALM", "BLK_NO": "18", "ROAD_NAME": "LORONG 7 TOA PAYOH", "BUILDING": "KIM KEAT PALM", "ADDRESS": "18 LORONG 7 TOA PAYOH KIM KEAT PALM SINGAPORE 310018", "POSTAL": "310018", "X": "30612.0800840864", "Y": "35326.7775317598", "LATITUDE": "1.33575723665506", "LONGITUDE": "103.856789628423"}], "355A YISHUN RING RD": [{"SEARCHVAL": "YISHUN JASMINE", "BLK_NO": "355A", "ROAD_NAME": "YISHUN RING ROAD", "BUILDING": "YISHUN JASMINE", "ADDRESS": "355A YISHUN RING ROAD YISHUN JASMINE SINGAPORE 761355", "POSTAL": "761355", "X": "29261.5267367987", "Y": "45307.253858041", "LATITUDE": "1.42601717629953", "LONGITUDE": "103.844654553218"}], "260B ANG MO KIO ST 21": [{"SEARCHVAL": "KEBUN BARU COURT", "BLK_NO": "260B", "ROAD_NAME": "ANG MO KIO STREET 21", "BUILDING": "KEBUN BARU COURT", "ADDRESS": "260B ANG MO KIO STREET 21 KEBUN BARU COURT SINGAPORE 562260", "POSTAL": "562260", "X": "28070.7370393062", "Y": "38987.5529575944", "LATITUDE": "1.36886409962902", "LONGITUDE": "103.83395420063"}], "844 JURONG WEST ST 81": [{"SEARCHVAL": "NANYANG PEARL", "BLK_NO": "844", "ROAD_NAME": "JURONG WEST STREET 81", "BUILDING": "NANYANG PEARL", "ADDRESS": "844 JURONG WEST STREET 81 NANYANG PEARL SINGAPORE 640844", "POSTAL": "640844", "X": "12315.315537598", "Y": "36342.4079814143", "LATITUDE": "1.34493825499181", "LONGITUDE": "103.692382237035"}], "812 TAMPINES AVE 4": [{"SEARCHVAL": "TAMPINES POLYVIEW", "BLK_NO": "812", "ROAD_NAME": "TAMPINES AVENUE 4", "BUILDING": "TAMPINES POLYVIEW", "ADDRESS": "812 TAMPINES AVENUE 4 TAMPINES POLYVIEW SINGAPORE 520812", "POSTAL": "520812", "X": "39575.647077864", "Y": "36565.0963781867", "LATITUDE": "1.34695403231693", "LONGITUDE": "103.937332877241"}], "328 WOODLANDS ST 32": [{"SEARCHVAL": "328 WOODLANDS STREET 32 SINGAPORE 730328", "BLK_NO": "328", "ROAD_NAME": "WOODLANDS STREET 32", "BUILDING": "NIL", "ADDRESS": "328 WOODLANDS STREET 32 SINGAPORE 730328", "POSTAL": "730328", "X": "22004.1008181954", "Y": "45754.0793378223", "LATITUDE": "1.43005749573809", "LONGITUDE": "103.779439838598"}], "443B BT BATOK WEST AVE 8": [{"SEARCHVAL": "WEST RIDGES @ BUKIT BATOK", "BLK_NO": "443B", "ROAD_NAME": "BUKIT BATOK WEST AVENUE 8", "BUILDING": "WEST RIDGES @ BUKIT BATOK", "ADDRESS": "443B BUKIT BATOK WEST AVENUE 8 WEST RIDGES @ BUKIT BATOK SINGAPORE 652443", "POSTAL": "652443", "X": "17373.3423310919", "Y": "37578.9471612051", "LATITUDE": "1.35612327530865", "LONGITUDE": "103.737831166898"}], "526B PASIR RIS ST 51": [{"SEARCHVAL": "COSTA RIS", "BLK_NO": "526B", "ROAD_NAME": "PASIR RIS STREET 51", "BUILDING": "COSTA RIS", "ADDRESS": "526B PASIR RIS STREET 51 COSTA RIS SINGAPORE 512526", "POSTAL": "512526", "X": "40655.0256544584", "Y": "38880.4464888051", "LATITUDE": "1.36789275657772", "LONGITUDE": "103.947032722415"}], "40 CIRCUIT RD": [{"SEARCHVAL": "40 CIRCUIT ROAD SINGAPORE 370040", "BLK_NO": "40", "ROAD_NAME": "CIRCUIT ROAD", "BUILDING": "NIL", "ADDRESS": "40 CIRCUIT ROAD SINGAPORE 370040", "POSTAL": "370040", "X": "33892.3592593903", "Y": "34433.3524318915", "LATITUDE": "1.32767695905654", "LONGITUDE": "103.886264654446"}], "374 BT BATOK ST 31": [{"SEARCHVAL": "374 BUKIT BATOK STREET 31 SINGAPORE 650374", "BLK_NO": "374", "ROAD_NAME": "BUKIT BATOK STREET 31", "BUILDING": "NIL", "ADDRESS": "374 BUKIT BATOK STREET 31 SINGAPORE 650374", "POSTAL": "650374", "X": "18809.5582492808", "Y": "37784.5235836506", "LATITUDE": "1.35798291106742", "LONGITUDE": "103.750736425731"}, {"SEARCHVAL": "ATM DBS BUKIT BATOK STREET 31", "BLK_NO": "374", "ROAD_NAME": "BUKIT BATOK STREET 31", "BUILDING": "ATM DBS BUKIT BATOK STREET 31", "ADDRESS": "374 BUKIT BATOK STREET 31 ATM DBS BUKIT BATOK STREET 31 SINGAPORE 650374", "POSTAL": "650374", "X": "18807.6938928235", "Y": "37797.391411569", "LATITUDE": "1.35809928242123", "LONGITUDE": "103.750719669325"}], "274 BANGKIT RD": [{"SEARCHVAL": "274 BANGKIT ROAD SINGAPORE 670274", "BLK_NO": "274", "ROAD_NAME": "BANGKIT ROAD", "BUILDING": "NIL", "ADDRESS": "274 BANGKIT ROAD SINGAPORE 670274", "POSTAL": "670274", "X": "21490.1682219822", "Y": "39904.5303020254", "LATITUDE": "1.37715619247431", "LONGITUDE": "103.774822991849"}, {"SEARCHVAL": "NKF DIALYSIS CENTRE BUKIT PANJANG", "BLK_NO": "274", "ROAD_NAME": "BANGKIT ROAD", "BUILDING": "NKF DIALYSIS CENTRE BUKIT PANJANG", "ADDRESS": "274 BANGKIT ROAD NKF DIALYSIS CENTRE BUKIT PANJANG SINGAPORE 670274", "POSTAL": "670274", "X": "21526.2357632555", "Y": "39906.8706527948", "LATITUDE": "1.37717736574189", "LONGITUDE": "103.77514708439"}], "484 TAMPINES ST 43": [{"SEARCHVAL": "484 TAMPINES STREET 43 SINGAPORE 520484", "BLK_NO": "484", "ROAD_NAME": "TAMPINES STREET 43", "BUILDING": "NIL", "ADDRESS": "484 TAMPINES STREET 43 SINGAPORE 520484", "POSTAL": "520484", "X": "41279.0209026271", "Y": "38217.5900552701", "LATITUDE": "1.36189785863171", "LONGITUDE": "103.952639447182"}], "454 TAMPINES ST 42": [{"SEARCHVAL": "454 TAMPINES STREET 42 SINGAPORE 520454", "BLK_NO": "454", "ROAD_NAME": "TAMPINES STREET 42", "BUILDING": "NIL", "ADDRESS": "454 TAMPINES STREET 42 SINGAPORE 520454", "POSTAL": "520454", "X": "41542.4605387421", "Y": "37708.9978210311", "LATITUDE": "1.3572982230676", "LONGITUDE": "103.955006394373"}], "753 YISHUN ST 72": [{"SEARCHVAL": "753 YISHUN STREET 72 SINGAPORE 760753", "BLK_NO": "753", "ROAD_NAME": "YISHUN STREET 72", "BUILDING": "NIL", "ADDRESS": "753 YISHUN STREET 72 SINGAPORE 760753", "POSTAL": "760753", "X": "28145.6602874408", "Y": "45414.4936875664", "LATITUDE": "1.426987042197", "LONGITUDE": "103.834627470285"}], "44 OWEN RD": [{"SEARCHVAL": "44 OWEN ROAD SINGAPORE 210044", "BLK_NO": "44", "ROAD_NAME": "OWEN ROAD", "BUILDING": "NIL", "ADDRESS": "44 OWEN ROAD SINGAPORE 210044", "POSTAL": "210044", "X": "29898.5354321552", "Y": "33088.1162007675", "LATITUDE": "1.31551162976199", "LONGITUDE": "103.850377879064"}, {"SEARCHVAL": "ATM UOB OWEN ROAD", "BLK_NO": "44", "ROAD_NAME": "OWEN ROAD", "BUILDING": "ATM UOB OWEN ROAD", "ADDRESS": "44 OWEN ROAD ATM UOB OWEN ROAD SINGAPORE 210044", "POSTAL": "210044", "X": "29899.7361933375", "Y": "33089.8616948519", "LATITUDE": "1.31552741531929", "LONGITUDE": "103.850388668617"}], "306 JURONG EAST ST 32": [{"SEARCHVAL": "HONG KAH EAST GARDEN", "BLK_NO": "306", "ROAD_NAME": "JURONG EAST STREET 32", "BUILDING": "HONG KAH EAST GARDEN", "ADDRESS": "306 JURONG EAST STREET 32 HONG KAH EAST GARDEN SINGAPORE 600306", "POSTAL": "600306", "X": "17086.3423385955", "Y": "36467.3686560281", "LATITUDE": "1.34607046577403", "LONGITUDE": "103.735252691468"}], "415 TAMPINES ST 41": [{"SEARCHVAL": "SUN PLAZA VIEW", "BLK_NO": "415", "ROAD_NAME": "TAMPINES STREET 41", "BUILDING": "SUN PLAZA VIEW", "ADDRESS": "415 TAMPINES STREET 41 SUN PLAZA VIEW SINGAPORE 520415", "POSTAL": "520415", "X": "40647.6099681798", "Y": "37947.8542850576", "LATITUDE": "1.3594587451825", "LONGITUDE": "103.946965691919"}], "223 SIMEI ST 4": [{"SEARCHVAL": "223 SIMEI STREET 4 SINGAPORE 520223", "BLK_NO": "223", "ROAD_NAME": "SIMEI STREET 4", "BUILDING": "NIL", "ADDRESS": "223 SIMEI STREET 4 SINGAPORE 520223", "POSTAL": "520223", "X": "41836.4325796794", "Y": "36027.2497442029", "LATITUDE": "1.34208899237085", "LONGITUDE": "103.95764714793"}], "517 BEDOK NTH AVE 2": [{"SEARCHVAL": "KAKI BUKIT GREEN", "BLK_NO": "517", "ROAD_NAME": "BEDOK NORTH AVENUE 2", "BUILDING": "KAKI BUKIT GREEN", "ADDRESS": "517 BEDOK NORTH AVENUE 2 KAKI BUKIT GREEN SINGAPORE 460517", "POSTAL": "460517", "X": "38671.1198329087", "Y": "34810.7900421321", "LATITUDE": "1.33108906602956", "LONGITUDE": "103.929204536012"}], "551 PASIR RIS ST 51": [{"SEARCHVAL": "551 PASIR RIS STREET 51 SINGAPORE 510551", "BLK_NO": "551", "ROAD_NAME": "PASIR RIS STREET 51", "BUILDING": "NIL", "ADDRESS": "551 PASIR RIS STREET 51 SINGAPORE 510551", "POSTAL": "510551", "X": "41332.2684001187", "Y": "38822.6551918667", "LATITUDE": "1.36736981596041", "LONGITUDE": "103.953118181493"}], "436 ANG MO KIO AVE 10": [{"SEARCHVAL": "CHONG BOON RISE", "BLK_NO": "436", "ROAD_NAME": "ANG MO KIO AVENUE 10", "BUILDING": "CHONG BOON RISE", "ADDRESS": "436 ANG MO KIO AVENUE 10 CHONG BOON RISE SINGAPORE 560436", "POSTAL": "560436", "X": "30306.1641151663", "Y": "38819.2110282667", "LATITUDE": "1.36734158552808", "LONGITUDE": "103.854041064261"}], "270A PUNGGOL FIELD": [{"SEARCHVAL": "PUNGGOL SAPPHIRE", "BLK_NO": "270A", "ROAD_NAME": "PUNGGOL FIELD", "BUILDING": "PUNGGOL SAPPHIRE", "ADDRESS": "270A PUNGGOL FIELD PUNGGOL SAPPHIRE SINGAPORE 821270", "POSTAL": "821270", "X": "35360.0728889396", "Y": "42870.5399081185", "LATITUDE": "1.40397950121026", "LONGITUDE": "103.899454945441"}], "27A JLN MEMBINA": [{"SEARCHVAL": "MEMBINA COURT", "BLK_NO": "27A", "ROAD_NAME": "JALAN MEMBINA", "BUILDING": "MEMBINA COURT", "ADDRESS": "27A JALAN MEMBINA MEMBINA COURT SINGAPORE 163027", "POSTAL": "163027", "X": "27022.5992594259", "Y": "29406.7498590928", "LATITUDE": "1.2822186913861", "LONGITUDE": "103.824536254761"}], "227D COMPASSVALE DR": [{"SEARCHVAL": "COMPASSVALE COURT", "BLK_NO": "227D", "ROAD_NAME": "COMPASSVALE DRIVE", "BUILDING": "COMPASSVALE COURT", "ADDRESS": "227D COMPASSVALE DRIVE COMPASSVALE COURT SINGAPORE 544227", "POSTAL": "544227", "X": "35578.3008745592", "Y": "40989.1582247671", "LATITUDE": "1.38696491631064", "LONGITUDE": "103.90141541498"}], "291E BT BATOK ST 24": [{"SEARCHVAL": "SPRING VIEW", "BLK_NO": "291E", "ROAD_NAME": "BUKIT BATOK STREET 24", "BUILDING": "SPRING VIEW", "ADDRESS": "291E BUKIT BATOK STREET 24 SPRING VIEW SINGAPORE 654291", "POSTAL": "654291", "X": "19260.4314967934", "Y": "36177.9092990514", "LATITUDE": "1.343453412569", "LONGITUDE": "103.754788281769"}], "252 COMPASSVALE ST": [{"SEARCHVAL": "BEYONDTALENT (EDEN) COMPASSVALE LIMITED", "BLK_NO": "252", "ROAD_NAME": "COMPASSVALE STREET", "BUILDING": "BEYONDTALENT (EDEN) COMPASSVALE LIMITED", "ADDRESS": "252 COMPASSVALE STREET BEYONDTALENT (EDEN) COMPASSVALE LIMITED SINGAPORE 540252", "POSTAL": "540252", "X": "35506.4583018078", "Y": "41731.8872968666", "LATITUDE": "1.39368190554213", "LONGITUDE": "103.900770045348"}, {"SEARCHVAL": "COMPASSVALE HAVEN", "BLK_NO": "252", "ROAD_NAME": "COMPASSVALE STREET", "BUILDING": "COMPASSVALE HAVEN", "ADDRESS": "252 COMPASSVALE STREET COMPASSVALE HAVEN SINGAPORE 540252", "POSTAL": "540252", "X": "35518.6269998373", "Y": "41748.0504304413", "LATITUDE": "1.39382807586515", "LONGITUDE": "103.900879394841"}], "289A PUNGGOL PL": [{"SEARCHVAL": "PUNGGOL ARCADIA", "BLK_NO": "289A", "ROAD_NAME": "PUNGGOL PLACE", "BUILDING": "PUNGGOL ARCADIA", "ADDRESS": "289A PUNGGOL PLACE PUNGGOL ARCADIA SINGAPORE 821289", "POSTAL": "821289", "X": "35712.2054356812", "Y": "42604.3926192541", "LATITUDE": "1.40157247042169", "LONGITUDE": "103.902619076474"}], "408 SEMBAWANG DR": [{"SEARCHVAL": "408 SEMBAWANG DRIVE SINGAPORE 750408", "BLK_NO": "408", "ROAD_NAME": "SEMBAWANG DRIVE", "BUILDING": "NIL", "ADDRESS": "408 SEMBAWANG DRIVE SINGAPORE 750408", "POSTAL": "750408", "X": "26264.2681313669", "Y": "48341.631272357", "LATITUDE": "1.45345895920531", "LONGITUDE": "103.817721249079"}], "312B CLEMENTI AVE 4": [{"SEARCHVAL": "CLEMENTI RIDGES", "BLK_NO": "312B", "ROAD_NAME": "CLEMENTI AVENUE 4", "BUILDING": "CLEMENTI RIDGES", "ADDRESS": "312B CLEMENTI AVENUE 4 CLEMENTI RIDGES SINGAPORE 122312", "POSTAL": "122312", "X": "20336.2184744393", "Y": "33548.3554218207", "LATITUDE": "1.3196729696325", "LONGITUDE": "103.764455532029"}, {"SEARCHVAL": "PCF SPARKLETOTS PRESCHOOL @ BUKIT TIMAH BLK 312B (DS)", "BLK_NO": "312B", "ROAD_NAME": "CLEMENTI AVENUE 4", "BUILDING": "PCF SPARKLETOTS PRESCHOOL @ BUKIT TIMAH BLK 312B (DS)", "ADDRESS": "312B CLEMENTI AVENUE 4 PCF SPARKLETOTS PRESCHOOL @ BUKIT TIMAH BLK 312B (DS) SINGAPORE 122312", "POSTAL": "122312", "X": "20336.115290883", "Y": "33546.4746298473", "LATITUDE": "1.31965596040108", "LONGITUDE": "103.76445460534"}], "345 BT BATOK ST 34": [{"SEARCHVAL": "345 BUKIT BATOK STREET 34 SINGAPORE 650345", "BLK_NO": "345", "ROAD_NAME": "BUKIT BATOK STREET 34", "BUILDING": "NIL", "ADDRESS": "345 BUKIT BATOK STREET 34 SINGAPORE 650345", "POSTAL": "650345", "X": "18821.4641001401", "Y": "38322.5705916863", "LATITUDE": "1.36284881503816", "LONGITUDE": "103.750843242288"},